{
"type": "FeatureCollection",
"name": "PSE_schools",
"crs": { "type": "name", "properties": { "name": "urn:ogc:def:crs:OGC:1.3:CRS84" } },
"features": [
{ "type": "Feature", "properties": { "osm_id": "", "name": "", "amenity": null, "building": "school", "operator": "", "capacity": "", "addr_city": "", "country": "Palestine", "iso3": "PSE", "source": "HOTOSM/OSM", "latitude": 31.318692, "longitude": 34.233465 }, "geometry": { "type": "Point", "coordinates": [ 34.233465294984342, 31.318692480629537 ] } },
{ "type": "Feature", "properties": { "osm_id": "", "name": "", "amenity": "school", "building": null, "operator": "", "capacity": "", "addr_city": "", "country": "Palestine", "iso3": "PSE", "source": "HOTOSM/OSM", "latitude": 31.318733, "longitude": 34.2333 }, "geometry": { "type": "Point", "coordinates": [ 34.233299603176718, 31.318732974688459 ] } },
{ "type": "Feature", "properties": { "osm_id": "", "name": "Reyadh Elem Boys School", "amenity": "school", "building": null, "operator": "", "capacity": "", "addr_city": "", "country": "Palestine", "iso3": "PSE", "source": "HOTOSM/OSM", "latitude": 31.314402, "longitude": 34.235216 }, "geometry": { "type": "Point", "coordinates": [ 34.235216082496436, 31.314401739075127 ] } },
{ "type": "Feature", "properties": { "osm_id": "", "name": "مركز مهاراتي التعليمي", "amenity": "school", "building": null, "operator": "", "capacity": "", "addr_city": "", "country": "Palestine", "iso3": "PSE", "source": "HOTOSM/OSM", "latitude": 31.305779, "longitude": 34.2434 }, "geometry": { "type": "Point", "coordinates": [ 34.2434004, 31.305779 ] } },
{ "type": "Feature", "properties": { "osm_id": "", "name": "", "amenity": null, "building": "school", "operator": "", "capacity": "", "addr_city": "", "country": "Palestine", "iso3": "PSE", "source": "HOTOSM/OSM", "latitude": 31.305762, "longitude": 34.243384 }, "geometry": { "type": "Point", "coordinates": [ 34.243383652444273, 31.305761552446221 ] } },
{ "type": "Feature", "properties": { "osm_id": "", "name": "مركز مهاراتي التعليمي", "amenity": "school", "building": null, "operator": "", "capacity": "", "addr_city": "", "country": "Palestine", "iso3": "PSE", "source": "HOTOSM/OSM", "latitude": 31.305812, "longitude": 34.243452 }, "geometry": { "type": "Point", "coordinates": [ 34.2434518, 31.3058123 ] } },
{ "type": "Feature", "properties": { "osm_id": "", "name": "", "amenity": null, "building": "school", "operator": "", "capacity": "", "addr_city": "", "country": "Palestine", "iso3": "PSE", "source": "HOTOSM/OSM", "latitude": 31.307345, "longitude": 34.24605 }, "geometry": { "type": "Point", "coordinates": [ 34.246050121112347, 31.307345340131537 ] } },
{ "type": "Feature", "properties": { "osm_id": "", "name": "", "amenity": null, "building": "school", "operator": "", "capacity": "", "addr_city": "", "country": "Palestine", "iso3": "PSE", "source": "HOTOSM/OSM", "latitude": 31.307467, "longitude": 34.246148 }, "geometry": { "type": "Point", "coordinates": [ 34.246148497467992, 31.307466701284568 ] } },
{ "type": "Feature", "properties": { "osm_id": "", "name": "روضة لجنة تل السلطان", "amenity": "kindergarten", "building": null, "operator": "", "capacity": "", "addr_city": "", "country": "Palestine", "iso3": "PSE", "source": "HOTOSM/OSM", "latitude": 31.307511, "longitude": 34.246113 }, "geometry": { "type": "Point", "coordinates": [ 34.246113253071819, 31.307511207656852 ] } },
{ "type": "Feature", "properties": { "osm_id": "", "name": "مدرسة بدر الاعدادية للبنات", "amenity": "school", "building": null, "operator": "", "capacity": "", "addr_city": "", "country": "Palestine", "iso3": "PSE", "source": "HOTOSM/OSM", "latitude": 31.307311, "longitude": 34.246745 }, "geometry": { "type": "Point", "coordinates": [ 34.246745280740647, 31.307310954922322 ] } },
{ "type": "Feature", "properties": { "osm_id": "", "name": "", "amenity": null, "building": "school", "operator": "", "capacity": "", "addr_city": "", "country": "Palestine", "iso3": "PSE", "source": "HOTOSM/OSM", "latitude": 31.307303, "longitude": 34.246783 }, "geometry": { "type": "Point", "coordinates": [ 34.246782650748159, 31.307302712533392 ] } },
{ "type": "Feature", "properties": { "osm_id": "", "name": "", "amenity": null, "building": "school", "operator": "", "capacity": "", "addr_city": "", "country": "Palestine", "iso3": "PSE", "source": "HOTOSM/OSM", "latitude": 31.307534, "longitude": 34.242906 }, "geometry": { "type": "Point", "coordinates": [ 34.242905852099689, 31.307533893787237 ] } },
{ "type": "Feature", "properties": { "osm_id": "", "name": "Al Qadesia Secondary School", "amenity": "school", "building": null, "operator": "", "capacity": "", "addr_city": "", "country": "Palestine", "iso3": "PSE", "source": "HOTOSM/OSM", "latitude": 31.307443, "longitude": 34.242683 }, "geometry": { "type": "Point", "coordinates": [ 34.242683071384761, 31.307443485729465 ] } },
{ "type": "Feature", "properties": { "osm_id": "", "name": "مدرسة عقبة بن نافع", "amenity": "school", "building": null, "operator": "", "capacity": "", "addr_city": "", "country": "Palestine", "iso3": "PSE", "source": "HOTOSM/OSM", "latitude": 31.310621, "longitude": 34.239867 }, "geometry": { "type": "Point", "coordinates": [ 34.23986687887529, 31.310621495328117 ] } },
{ "type": "Feature", "properties": { "osm_id": "", "name": "", "amenity": null, "building": "school", "operator": "", "capacity": "", "addr_city": "", "country": "Palestine", "iso3": "PSE", "source": "HOTOSM/OSM", "latitude": 31.306886, "longitude": 34.238643 }, "geometry": { "type": "Point", "coordinates": [ 34.238643104771612, 31.306885667627629 ] } },
{ "type": "Feature", "properties": { "osm_id": "", "name": "Rafah Colleg For Traning Job", "amenity": "college", "building": null, "operator": "", "capacity": "", "addr_city": "", "country": "Palestine", "iso3": "PSE", "source": "HOTOSM/OSM", "latitude": 31.306982, "longitude": 34.238875 }, "geometry": { "type": "Point", "coordinates": [ 34.2388754, 31.3069819 ] } },
{ "type": "Feature", "properties": { "osm_id": "", "name": "", "amenity": null, "building": "school", "operator": "", "capacity": "", "addr_city": "", "country": "Palestine", "iso3": "PSE", "source": "HOTOSM/OSM", "latitude": 31.306656, "longitude": 34.23848 }, "geometry": { "type": "Point", "coordinates": [ 34.23848, 31.30665555 ] } },
{ "type": "Feature", "properties": { "osm_id": "", "name": "Rafah A ELE. Girls School", "amenity": "school", "building": null, "operator": "", "capacity": "", "addr_city": "", "country": "Palestine", "iso3": "PSE", "source": "HOTOSM/OSM", "latitude": 31.306803, "longitude": 34.238392 }, "geometry": { "type": "Point", "coordinates": [ 34.23839174618022, 31.306803147964999 ] } },
{ "type": "Feature", "properties": { "osm_id": "", "name": "", "amenity": null, "building": "school", "operator": "", "capacity": "", "addr_city": "", "country": "Palestine", "iso3": "PSE", "source": "HOTOSM/OSM", "latitude": 31.306579, "longitude": 34.237925 }, "geometry": { "type": "Point", "coordinates": [ 34.237924907702208, 31.306579171770579 ] } },
{ "type": "Feature", "properties": { "osm_id": "", "name": "AL O'maria Prep School", "amenity": "school", "building": null, "operator": "", "capacity": "", "addr_city": "", "country": "Palestine", "iso3": "PSE", "source": "HOTOSM/OSM", "latitude": 31.306507, "longitude": 34.23772 }, "geometry": { "type": "Point", "coordinates": [ 34.237719756367085, 31.306506610844057 ] } },
{ "type": "Feature", "properties": { "osm_id": "", "name": "Rafah C Prep Girls School", "amenity": "school", "building": null, "operator": "", "capacity": "", "addr_city": "", "country": "Palestine", "iso3": "PSE", "source": "HOTOSM/OSM", "latitude": 31.305775, "longitude": 34.238164 }, "geometry": { "type": "Point", "coordinates": [ 34.238163588972938, 31.30577527218945 ] } },
{ "type": "Feature", "properties": { "osm_id": "", "name": "", "amenity": null, "building": "school", "operator": "", "capacity": "", "addr_city": "", "country": "Palestine", "iso3": "PSE", "source": "HOTOSM/OSM", "latitude": 31.306074, "longitude": 34.238364 }, "geometry": { "type": "Point", "coordinates": [ 34.238364334252047, 31.306074015814577 ] } },
{ "type": "Feature", "properties": { "osm_id": "", "name": "", "amenity": null, "building": "school", "operator": "", "capacity": "", "addr_city": "", "country": "Palestine", "iso3": "PSE", "source": "HOTOSM/OSM", "latitude": 31.305487, "longitude": 34.238392 }, "geometry": { "type": "Point", "coordinates": [ 34.238392294454727, 31.305486912078504 ] } },
{ "type": "Feature", "properties": { "osm_id": "", "name": "Makka Elementary School", "amenity": "school", "building": null, "operator": "", "capacity": "", "addr_city": "", "country": "Palestine", "iso3": "PSE", "source": "HOTOSM/OSM", "latitude": 31.312966, "longitude": 34.237574 }, "geometry": { "type": "Point", "coordinates": [ 34.23757358176514, 31.312966452189176 ] } },
{ "type": "Feature", "properties": { "osm_id": "", "name": "", "amenity": null, "building": "school", "operator": "", "capacity": "", "addr_city": "", "country": "Palestine", "iso3": "PSE", "source": "HOTOSM/OSM", "latitude": 31.312923, "longitude": 34.237578 }, "geometry": { "type": "Point", "coordinates": [ 34.237578075206265, 31.312922812762555 ] } },
{ "type": "Feature", "properties": { "osm_id": "", "name": "jeda Elementary School", "amenity": "school", "building": null, "operator": "", "capacity": "", "addr_city": "", "country": "Palestine", "iso3": "PSE", "source": "HOTOSM/OSM", "latitude": 31.313875, "longitude": 34.238332 }, "geometry": { "type": "Point", "coordinates": [ 34.2383324, 31.3138754 ] } },
{ "type": "Feature", "properties": { "osm_id": "", "name": "jeda ebtedaey school", "amenity": "school", "building": null, "operator": "", "capacity": "", "addr_city": "", "country": "Palestine", "iso3": "PSE", "source": "HOTOSM/OSM", "latitude": 31.31387, "longitude": 34.238311 }, "geometry": { "type": "Point", "coordinates": [ 34.238311423618583, 31.31387001743947 ] } },
{ "type": "Feature", "properties": { "osm_id": "", "name": "", "amenity": null, "building": "school", "operator": "", "capacity": "", "addr_city": "", "country": "Palestine", "iso3": "PSE", "source": "HOTOSM/OSM", "latitude": 31.313875, "longitude": 34.238335 }, "geometry": { "type": "Point", "coordinates": [ 34.238334916195754, 31.313875061671791 ] } },
{ "type": "Feature", "properties": { "osm_id": "", "name": "Kamal Edwan Secondary School", "amenity": "school", "building": null, "operator": "", "capacity": "", "addr_city": "", "country": "Palestine", "iso3": "PSE", "source": "HOTOSM/OSM", "latitude": 31.311279, "longitude": 34.23991 }, "geometry": { "type": "Point", "coordinates": [ 34.239909721132683, 31.311278704780804 ] } },
{ "type": "Feature", "properties": { "osm_id": "", "name": "Municipality Kindergarten", "amenity": "kindergarten", "building": "yes", "operator": "", "capacity": "", "addr_city": "", "country": "Palestine", "iso3": "PSE", "source": "HOTOSM/OSM", "latitude": 31.311467, "longitude": 34.241172 }, "geometry": { "type": "Point", "coordinates": [ 34.241172057517282, 31.311467092443401 ] } },
{ "type": "Feature", "properties": { "osm_id": "", "name": "", "amenity": "school", "building": null, "operator": "", "capacity": "", "addr_city": "", "country": "Palestine", "iso3": "PSE", "source": "HOTOSM/OSM", "latitude": 31.314083, "longitude": 34.241185 }, "geometry": { "type": "Point", "coordinates": [ 34.241185367425473, 31.31408326071136 ] } },
{ "type": "Feature", "properties": { "osm_id": "", "name": "", "amenity": "school", "building": "yes", "operator": "", "capacity": "", "addr_city": "", "country": "Palestine", "iso3": "PSE", "source": "HOTOSM/OSM", "latitude": 31.314246, "longitude": 34.241163 }, "geometry": { "type": "Point", "coordinates": [ 34.241163162502751, 31.314245888075408 ] } },
{ "type": "Feature", "properties": { "osm_id": "", "name": "", "amenity": "school", "building": null, "operator": "", "capacity": "", "addr_city": "", "country": "Palestine", "iso3": "PSE", "source": "HOTOSM/OSM", "latitude": 31.316614, "longitude": 34.240954 }, "geometry": { "type": "Point", "coordinates": [ 34.240954486285681, 31.316613662771822 ] } },
{ "type": "Feature", "properties": { "osm_id": "", "name": "روضة الحي السعودي", "amenity": "kindergarten", "building": null, "operator": "", "capacity": "", "addr_city": "", "country": "Palestine", "iso3": "PSE", "source": "HOTOSM/OSM", "latitude": 31.315545, "longitude": 34.237318 }, "geometry": { "type": "Point", "coordinates": [ 34.2373184, 31.3155446 ] } },
{ "type": "Feature", "properties": { "osm_id": "", "name": "Almadina Elementary School", "amenity": "school", "building": null, "operator": "", "capacity": "", "addr_city": "", "country": "Palestine", "iso3": "PSE", "source": "HOTOSM/OSM", "latitude": 31.315308, "longitude": 34.235787 }, "geometry": { "type": "Point", "coordinates": [ 34.235786613005303, 31.315307984404175 ] } },
{ "type": "Feature", "properties": { "osm_id": "", "name": "al madeina School", "amenity": "school", "building": null, "operator": "", "capacity": "", "addr_city": "", "country": "Palestine", "iso3": "PSE", "source": "HOTOSM/OSM", "latitude": 31.315352, "longitude": 34.235813 }, "geometry": { "type": "Point", "coordinates": [ 34.2358129, 31.315352 ] } },
{ "type": "Feature", "properties": { "osm_id": "", "name": "مدرسة فتحي الشقاقي الثانوية للبنين", "amenity": "school", "building": null, "operator": "", "capacity": "", "addr_city": "", "country": "Palestine", "iso3": "PSE", "source": "HOTOSM/OSM", "latitude": 31.317846, "longitude": 34.235738 }, "geometry": { "type": "Point", "coordinates": [ 34.235738339749815, 31.317846326472051 ] } },
{ "type": "Feature", "properties": { "osm_id": "", "name": "", "amenity": null, "building": "school", "operator": "", "capacity": "", "addr_city": "", "country": "Palestine", "iso3": "PSE", "source": "HOTOSM/OSM", "latitude": 31.317924, "longitude": 34.235841 }, "geometry": { "type": "Point", "coordinates": [ 34.235841350718545, 31.317924308299393 ] } },
{ "type": "Feature", "properties": { "osm_id": "", "name": "", "amenity": "school", "building": null, "operator": "", "capacity": "", "addr_city": "", "country": "Palestine", "iso3": "PSE", "source": "HOTOSM/OSM", "latitude": 31.315993, "longitude": 34.241958 }, "geometry": { "type": "Point", "coordinates": [ 34.241958181178155, 31.315992957050405 ] } },
{ "type": "Feature", "properties": { "osm_id": "", "name": "", "amenity": "school", "building": "yes", "operator": "", "capacity": "", "addr_city": "", "country": "Palestine", "iso3": "PSE", "source": "HOTOSM/OSM", "latitude": 31.314364, "longitude": 34.241792 }, "geometry": { "type": "Point", "coordinates": [ 34.241792277954488, 31.314363875230605 ] } },
{ "type": "Feature", "properties": { "osm_id": "", "name": "", "amenity": "school", "building": "yes", "operator": "", "capacity": "", "addr_city": "", "country": "Palestine", "iso3": "PSE", "source": "HOTOSM/OSM", "latitude": 31.314372, "longitude": 34.241562 }, "geometry": { "type": "Point", "coordinates": [ 34.24156175, 31.3143716 ] } },
{ "type": "Feature", "properties": { "osm_id": "", "name": "Alquds open University", "amenity": null, "building": "university", "operator": "", "capacity": "", "addr_city": "", "country": "Palestine", "iso3": "PSE", "source": "HOTOSM/OSM", "latitude": 31.314254, "longitude": 34.242328 }, "geometry": { "type": "Point", "coordinates": [ 34.242327509959544, 31.314253981222176 ] } },
{ "type": "Feature", "properties": { "osm_id": "", "name": "", "amenity": "university", "building": "yes", "operator": "", "capacity": "", "addr_city": "", "country": "Palestine", "iso3": "PSE", "source": "HOTOSM/OSM", "latitude": 31.31396, "longitude": 34.241672 }, "geometry": { "type": "Point", "coordinates": [ 34.241671866950043, 31.31395955528258 ] } },
{ "type": "Feature", "properties": { "osm_id": "", "name": "Alaytam Vallage", "amenity": "school", "building": null, "operator": "", "capacity": "", "addr_city": "", "country": "Palestine", "iso3": "PSE", "source": "HOTOSM/OSM", "latitude": 31.312246, "longitude": 34.246349 }, "geometry": { "type": "Point", "coordinates": [ 34.246348553506088, 31.312245589266652 ] } },
{ "type": "Feature", "properties": { "osm_id": "", "name": "", "amenity": null, "building": "school", "operator": "", "capacity": "", "addr_city": "", "country": "Palestine", "iso3": "PSE", "source": "HOTOSM/OSM", "latitude": 31.312359, "longitude": 34.250796 }, "geometry": { "type": "Point", "coordinates": [ 34.250795600372591, 31.312358916716956 ] } },
{ "type": "Feature", "properties": { "osm_id": "", "name": "", "amenity": null, "building": "school", "operator": "", "capacity": "", "addr_city": "", "country": "Palestine", "iso3": "PSE", "source": "HOTOSM/OSM", "latitude": 31.311841, "longitude": 34.251166 }, "geometry": { "type": "Point", "coordinates": [ 34.25116590185069, 31.311840564408946 ] } },
{ "type": "Feature", "properties": { "osm_id": "", "name": "", "amenity": null, "building": "school", "operator": "", "capacity": "", "addr_city": "", "country": "Palestine", "iso3": "PSE", "source": "HOTOSM/OSM", "latitude": 31.310663, "longitude": 34.247605 }, "geometry": { "type": "Point", "coordinates": [ 34.24760526002823, 31.310663137399033 ] } },
{ "type": "Feature", "properties": { "osm_id": "", "name": "مدرسة بنات تل السلطان الابتدائية", "amenity": "school", "building": null, "operator": "", "capacity": "", "addr_city": "", "country": "Palestine", "iso3": "PSE", "source": "HOTOSM/OSM", "latitude": 31.310554, "longitude": 34.247489 }, "geometry": { "type": "Point", "coordinates": [ 34.2474886, 31.3105537 ] } },
{ "type": "Feature", "properties": { "osm_id": "", "name": "Alsalah", "amenity": "kindergarten", "building": null, "operator": "", "capacity": "", "addr_city": "", "country": "Palestine", "iso3": "PSE", "source": "HOTOSM/OSM", "latitude": 31.290908, "longitude": 34.256537 }, "geometry": { "type": "Point", "coordinates": [ 34.2565367, 31.2909078 ] } },
{ "type": "Feature", "properties": { "osm_id": "", "name": "Rafah C Prep Male School", "amenity": "school", "building": null, "operator": "", "capacity": "", "addr_city": "", "country": "Palestine", "iso3": "PSE", "source": "HOTOSM/OSM", "latitude": 31.28893, "longitude": 34.256961 }, "geometry": { "type": "Point", "coordinates": [ 34.256961041309957, 31.288930487385446 ] } },
{ "type": "Feature", "properties": { "osm_id": "", "name": "Rafah C Prep Male School", "amenity": "school", "building": null, "operator": "", "capacity": "", "addr_city": "", "country": "Palestine", "iso3": "PSE", "source": "HOTOSM/OSM", "latitude": 31.288536, "longitude": 34.257774 }, "geometry": { "type": "Point", "coordinates": [ 34.25777398095385, 31.288536211472572 ] } },
{ "type": "Feature", "properties": { "osm_id": "", "name": "Khawla ELE. Co. School", "amenity": "school", "building": null, "operator": "", "capacity": "", "addr_city": "", "country": "Palestine", "iso3": "PSE", "source": "HOTOSM/OSM", "latitude": 31.287251, "longitude": 34.248174 }, "geometry": { "type": "Point", "coordinates": [ 34.248174212420849, 31.287251382288346 ] } },
{ "type": "Feature", "properties": { "osm_id": "", "name": "روضة بكرا احلى", "amenity": "kindergarten", "building": null, "operator": "", "capacity": "", "addr_city": "", "country": "Palestine", "iso3": "PSE", "source": "HOTOSM/OSM", "latitude": 31.287584, "longitude": 34.247925 }, "geometry": { "type": "Point", "coordinates": [ 34.2479252, 31.2875843 ] } },
{ "type": "Feature", "properties": { "osm_id": "", "name": "مدرسة بنات رفح الاعدادية ب", "amenity": "school", "building": null, "operator": "", "capacity": "", "addr_city": "", "country": "Palestine", "iso3": "PSE", "source": "HOTOSM/OSM", "latitude": 31.290361, "longitude": 34.247529 }, "geometry": { "type": "Point", "coordinates": [ 34.247528840907101, 31.290360920016045 ] } },
{ "type": "Feature", "properties": { "osm_id": "", "name": "مدرسة ذكور رفح الابتدائية أ & د", "amenity": "school", "building": null, "operator": "", "capacity": "", "addr_city": "", "country": "Palestine", "iso3": "PSE", "source": "HOTOSM/OSM", "latitude": 31.290635, "longitude": 34.246154 }, "geometry": { "type": "Point", "coordinates": [ 34.246153643328327, 31.290635032143143 ] } },
{ "type": "Feature", "properties": { "osm_id": "", "name": "مدرسة رابعة العدوية الثانوية للبنات", "amenity": "school", "building": null, "operator": "", "capacity": "", "addr_city": "", "country": "Palestine", "iso3": "PSE", "source": "HOTOSM/OSM", "latitude": 31.29139, "longitude": 34.245433 }, "geometry": { "type": "Point", "coordinates": [ 34.245433, 31.2913896 ] } },
{ "type": "Feature", "properties": { "osm_id": "", "name": "مدرسة رابعة العدوية للبنات", "amenity": "school", "building": null, "operator": "", "capacity": "", "addr_city": "", "country": "Palestine", "iso3": "PSE", "source": "HOTOSM/OSM", "latitude": 31.291343, "longitude": 34.245498 }, "geometry": { "type": "Point", "coordinates": [ 34.245498076237595, 31.291343029962256 ] } },
{ "type": "Feature", "properties": { "osm_id": "", "name": "مدرسة ذكور رفح الاعدادية", "amenity": "school", "building": null, "operator": "", "capacity": "", "addr_city": "", "country": "Palestine", "iso3": "PSE", "source": "HOTOSM/OSM", "latitude": 31.290427, "longitude": 34.245677 }, "geometry": { "type": "Point", "coordinates": [ 34.245676819715186, 31.29042689566732 ] } },
{ "type": "Feature", "properties": { "osm_id": "", "name": "روضة السنابل", "amenity": "kindergarten", "building": null, "operator": "", "capacity": "", "addr_city": "", "country": "Palestine", "iso3": "PSE", "source": "HOTOSM/OSM", "latitude": 31.27596, "longitude": 34.252669 }, "geometry": { "type": "Point", "coordinates": [ 34.2526693, 31.2759603 ] } },
{ "type": "Feature", "properties": { "osm_id": "", "name": "مدرسة طيبة الخاصة", "amenity": "school", "building": null, "operator": "", "capacity": "", "addr_city": "", "country": "Palestine", "iso3": "PSE", "source": "HOTOSM/OSM", "latitude": 31.28135, "longitude": 34.247687 }, "geometry": { "type": "Point", "coordinates": [ 34.2476872, 31.2813505 ] } },
{ "type": "Feature", "properties": { "osm_id": "", "name": "مدرسة بنات رفح الإعدادية", "amenity": "school", "building": null, "operator": "", "capacity": "", "addr_city": "", "country": "Palestine", "iso3": "PSE", "source": "HOTOSM/OSM", "latitude": 31.279667, "longitude": 34.251346 }, "geometry": { "type": "Point", "coordinates": [ 34.251346437478126, 31.279666828610477 ] } },
{ "type": "Feature", "properties": { "osm_id": "", "name": "مدرسة الزهراء الابتدائية للبنات", "amenity": "school", "building": null, "operator": "", "capacity": "", "addr_city": "", "country": "Palestine", "iso3": "PSE", "source": "HOTOSM/OSM", "latitude": 31.276568, "longitude": 34.254925 }, "geometry": { "type": "Point", "coordinates": [ 34.254925175322896, 31.276568330391793 ] } },
{ "type": "Feature", "properties": { "osm_id": "", "name": "Bear Al Saba' Secondary School", "amenity": "school", "building": null, "operator": "", "capacity": "", "addr_city": "", "country": "Palestine", "iso3": "PSE", "source": "HOTOSM/OSM", "latitude": 31.277824, "longitude": 34.25575 }, "geometry": { "type": "Point", "coordinates": [ 34.25575028581337, 31.277824108570442 ] } },
{ "type": "Feature", "properties": { "osm_id": "", "name": "مدرسة بير السبع الثانوية", "amenity": "school", "building": null, "operator": "", "capacity": "", "addr_city": "", "country": "Palestine", "iso3": "PSE", "source": "HOTOSM/OSM", "latitude": 31.278301, "longitude": 34.256087 }, "geometry": { "type": "Point", "coordinates": [ 34.2560871, 31.278301 ] } },
{ "type": "Feature", "properties": { "osm_id": "", "name": "مدرسة الجامع الأساسية المشتركة", "amenity": "school", "building": null, "operator": "", "capacity": "", "addr_city": "", "country": "Palestine", "iso3": "PSE", "source": "HOTOSM/OSM", "latitude": 31.280573, "longitude": 34.254593 }, "geometry": { "type": "Point", "coordinates": [ 34.254592613427441, 31.280572881369494 ] } },
{ "type": "Feature", "properties": { "osm_id": "", "name": "مدرسة شهداء رفح الثانوية للبنين", "amenity": "school", "building": null, "operator": "", "capacity": "", "addr_city": "", "country": "Palestine", "iso3": "PSE", "source": "HOTOSM/OSM", "latitude": 31.281007, "longitude": 34.254303 }, "geometry": { "type": "Point", "coordinates": [ 34.254303211067487, 31.281006933755602 ] } },
{ "type": "Feature", "properties": { "osm_id": "", "name": "مدرسة الرسمية العدادية للبنين", "amenity": "school", "building": null, "operator": "", "capacity": "", "addr_city": "", "country": "Palestine", "iso3": "PSE", "source": "HOTOSM/OSM", "latitude": 31.281352, "longitude": 34.254118 }, "geometry": { "type": "Point", "coordinates": [ 34.254117653235681, 31.281351635540766 ] } },
{ "type": "Feature", "properties": { "osm_id": "", "name": "مدرسة آمنة بنت وهب", "amenity": "school", "building": null, "operator": "", "capacity": "", "addr_city": "", "country": "Palestine", "iso3": "PSE", "source": "HOTOSM/OSM", "latitude": 31.281758, "longitude": 34.25339 }, "geometry": { "type": "Point", "coordinates": [ 34.253390262404672, 31.28175785666075 ] } },
{ "type": "Feature", "properties": { "osm_id": "", "name": "مدرسة الخنساء الابتدائية المشتركة", "amenity": "school", "building": null, "operator": "", "capacity": "", "addr_city": "", "country": "Palestine", "iso3": "PSE", "source": "HOTOSM/OSM", "latitude": 31.282067, "longitude": 34.253876 }, "geometry": { "type": "Point", "coordinates": [ 34.2538756, 31.2820674 ] } },
{ "type": "Feature", "properties": { "osm_id": "", "name": "مدرسة آمنة بنت وهب", "amenity": "school", "building": null, "operator": "", "capacity": "", "addr_city": "", "country": "Palestine", "iso3": "PSE", "source": "HOTOSM/OSM", "latitude": 31.282098, "longitude": 34.253766 }, "geometry": { "type": "Point", "coordinates": [ 34.25376556403873, 31.282098465849714 ] } },
{ "type": "Feature", "properties": { "osm_id": "", "name": "A Prep school", "amenity": "school", "building": null, "operator": "", "capacity": "", "addr_city": "", "country": "Palestine", "iso3": "PSE", "source": "HOTOSM/OSM", "latitude": 31.282054, "longitude": 34.256309 }, "geometry": { "type": "Point", "coordinates": [ 34.256309210210681, 31.282054213032243 ] } },
{ "type": "Feature", "properties": { "osm_id": "", "name": "مدرسة القدس الثانوية للينات", "amenity": "school", "building": null, "operator": "", "capacity": "", "addr_city": "رفح", "country": "Palestine", "iso3": "PSE", "source": "HOTOSM/OSM", "latitude": 31.280543, "longitude": 34.256042 }, "geometry": { "type": "Point", "coordinates": [ 34.256041558084164, 31.280543000544682 ] } },
{ "type": "Feature", "properties": { "osm_id": "", "name": "Al Jamea Elem school", "amenity": "school", "building": null, "operator": "", "capacity": "", "addr_city": "", "country": "Palestine", "iso3": "PSE", "source": "HOTOSM/OSM", "latitude": 31.28129, "longitude": 34.255742 }, "geometry": { "type": "Point", "coordinates": [ 34.255742, 31.2812903 ] } },
{ "type": "Feature", "properties": { "osm_id": "", "name": "B Prep school", "amenity": "school", "building": null, "operator": "", "capacity": "", "addr_city": "", "country": "Palestine", "iso3": "PSE", "source": "HOTOSM/OSM", "latitude": 31.281365, "longitude": 34.255631 }, "geometry": { "type": "Point", "coordinates": [ 34.255631096219808, 31.281364944316277 ] } },
{ "type": "Feature", "properties": { "osm_id": "", "name": "روضة أطفال رفح", "amenity": "kindergarten", "building": null, "operator": "", "capacity": "", "addr_city": "", "country": "Palestine", "iso3": "PSE", "source": "HOTOSM/OSM", "latitude": 31.280358, "longitude": 34.254974 }, "geometry": { "type": "Point", "coordinates": [ 34.254974, 31.2803579 ] } },
{ "type": "Feature", "properties": { "osm_id": "", "name": "مدرسة مسقط الثانوية للبنين", "amenity": "school", "building": null, "operator": "", "capacity": "", "addr_city": "", "country": "Palestine", "iso3": "PSE", "source": "HOTOSM/OSM", "latitude": 31.276061, "longitude": 34.258964 }, "geometry": { "type": "Point", "coordinates": [ 34.2589636, 31.2760611 ] } },
{ "type": "Feature", "properties": { "osm_id": "", "name": "مدرسة ب الابتدائية للبنين", "amenity": "school", "building": null, "operator": "", "capacity": "", "addr_city": "", "country": "Palestine", "iso3": "PSE", "source": "HOTOSM/OSM", "latitude": 31.275957, "longitude": 34.2555 }, "geometry": { "type": "Point", "coordinates": [ 34.255500099041171, 31.275956851228941 ] } },
{ "type": "Feature", "properties": { "osm_id": "", "name": "مدرسة أبو يوسف النجار الثانوية للبنين", "amenity": "school", "building": null, "operator": "", "capacity": "", "addr_city": "", "country": "Palestine", "iso3": "PSE", "source": "HOTOSM/OSM", "latitude": 31.271907, "longitude": 34.254978 }, "geometry": { "type": "Point", "coordinates": [ 34.254978449397086, 31.271906586198881 ] } },
{ "type": "Feature", "properties": { "osm_id": "", "name": "مدرسة طه حسين الثانوية للبنين", "amenity": "school", "building": null, "operator": "", "capacity": "", "addr_city": "", "country": "Palestine", "iso3": "PSE", "source": "HOTOSM/OSM", "latitude": 31.271588, "longitude": 34.254594 }, "geometry": { "type": "Point", "coordinates": [ 34.254594217335658, 31.271588337785179 ] } },
{ "type": "Feature", "properties": { "osm_id": "", "name": "حضانة الأم الحنون", "amenity": "kindergarten", "building": null, "operator": "", "capacity": "", "addr_city": "", "country": "Palestine", "iso3": "PSE", "source": "HOTOSM/OSM", "latitude": 31.272345, "longitude": 34.256683 }, "geometry": { "type": "Point", "coordinates": [ 34.2566829, 31.2723453 ] } },
{ "type": "Feature", "properties": { "osm_id": "", "name": "ابو طه", "amenity": "school", "building": null, "operator": "", "capacity": "", "addr_city": "", "country": "Palestine", "iso3": "PSE", "source": "HOTOSM/OSM", "latitude": 31.268557, "longitude": 34.258268 }, "geometry": { "type": "Point", "coordinates": [ 34.2582678, 31.2685572 ] } },
{ "type": "Feature", "properties": { "osm_id": "", "name": "", "amenity": "school", "building": null, "operator": "", "capacity": "", "addr_city": "", "country": "Palestine", "iso3": "PSE", "source": "HOTOSM/OSM", "latitude": 31.25819, "longitude": 34.285036 }, "geometry": { "type": "Point", "coordinates": [ 34.285035675253056, 31.258189766276409 ] } },
{ "type": "Feature", "properties": { "osm_id": "", "name": "", "amenity": "school", "building": null, "operator": "", "capacity": "", "addr_city": "", "country": "Palestine", "iso3": "PSE", "source": "HOTOSM/OSM", "latitude": 31.264033, "longitude": 34.280381 }, "geometry": { "type": "Point", "coordinates": [ 34.280380819593788, 31.26403315790132 ] } },
{ "type": "Feature", "properties": { "osm_id": "", "name": "الكلية الجامعية العربية(كلية عواجة)", "amenity": "college", "building": null, "operator": "", "capacity": "", "addr_city": "", "country": "Palestine", "iso3": "PSE", "source": "HOTOSM/OSM", "latitude": 31.26572, "longitude": 34.281006 }, "geometry": { "type": "Point", "coordinates": [ 34.281006, 31.2657202 ] } },
{ "type": "Feature", "properties": { "osm_id": "", "name": "", "amenity": "college", "building": null, "operator": "", "capacity": "", "addr_city": "", "country": "Palestine", "iso3": "PSE", "source": "HOTOSM/OSM", "latitude": 31.265473, "longitude": 34.280876 }, "geometry": { "type": "Point", "coordinates": [ 34.280876126921406, 31.265473234035575 ] } },
{ "type": "Feature", "properties": { "osm_id": "", "name": "Alshoka Elementary School", "amenity": "school", "building": null, "operator": "", "capacity": "", "addr_city": "", "country": "Palestine", "iso3": "PSE", "source": "HOTOSM/OSM", "latitude": 31.254565, "longitude": 34.282727 }, "geometry": { "type": "Point", "coordinates": [ 34.282727452834635, 31.254565354301519 ] } },
{ "type": "Feature", "properties": { "osm_id": "", "name": "", "amenity": "school", "building": null, "operator": "", "capacity": "", "addr_city": "", "country": "Palestine", "iso3": "PSE", "source": "HOTOSM/OSM", "latitude": 31.254235, "longitude": 34.280065 }, "geometry": { "type": "Point", "coordinates": [ 34.280065119456268, 31.254235337748966 ] } },
{ "type": "Feature", "properties": { "osm_id": "", "name": "", "amenity": "school", "building": null, "operator": "", "capacity": "", "addr_city": "", "country": "Palestine", "iso3": "PSE", "source": "HOTOSM/OSM", "latitude": 31.25857, "longitude": 34.263086 }, "geometry": { "type": "Point", "coordinates": [ 34.263085800206198, 31.258570017812477 ] } },
{ "type": "Feature", "properties": { "osm_id": "", "name": "جامعة القدس المفتوحة سابقاً", "amenity": "university", "building": null, "operator": "", "capacity": "", "addr_city": "", "country": "Palestine", "iso3": "PSE", "source": "HOTOSM/OSM", "latitude": 31.271447, "longitude": 34.264738 }, "geometry": { "type": "Point", "coordinates": [ 34.264737586807584, 31.27144716900451 ] } },
{ "type": "Feature", "properties": { "osm_id": "", "name": "", "amenity": null, "building": "university", "operator": "", "capacity": "", "addr_city": "", "country": "Palestine", "iso3": "PSE", "source": "HOTOSM/OSM", "latitude": 31.271372, "longitude": 34.264789 }, "geometry": { "type": "Point", "coordinates": [ 34.264789165267885, 31.271372356229715 ] } },
{ "type": "Feature", "properties": { "osm_id": "", "name": "", "amenity": null, "building": "university", "operator": "", "capacity": "", "addr_city": "", "country": "Palestine", "iso3": "PSE", "source": "HOTOSM/OSM", "latitude": 31.271587, "longitude": 34.264887 }, "geometry": { "type": "Point", "coordinates": [ 34.264887002967022, 31.271587182557266 ] } },
{ "type": "Feature", "properties": { "osm_id": "", "name": "Taiba", "amenity": "kindergarten", "building": null, "operator": "", "capacity": "", "addr_city": "", "country": "Palestine", "iso3": "PSE", "source": "HOTOSM/OSM", "latitude": 31.273469, "longitude": 34.263579 }, "geometry": { "type": "Point", "coordinates": [ 34.2635791, 31.2734689 ] } },
{ "type": "Feature", "properties": { "osm_id": "", "name": "Al Khayat", "amenity": "kindergarten", "building": null, "operator": "", "capacity": "", "addr_city": "", "country": "Palestine", "iso3": "PSE", "source": "HOTOSM/OSM", "latitude": 31.278118, "longitude": 34.266292 }, "geometry": { "type": "Point", "coordinates": [ 34.2662923, 31.2781176 ] } },
{ "type": "Feature", "properties": { "osm_id": "", "name": "Fula Kindergarten", "amenity": "kindergarten", "building": null, "operator": "", "capacity": "", "addr_city": "", "country": "Palestine", "iso3": "PSE", "source": "HOTOSM/OSM", "latitude": 31.275764, "longitude": 34.266326 }, "geometry": { "type": "Point", "coordinates": [ 34.2663265, 31.2757636 ] } },
{ "type": "Feature", "properties": { "osm_id": "", "name": "مدرسة دير ياسين الثانوية للبنات", "amenity": "school", "building": null, "operator": "", "capacity": "", "addr_city": "", "country": "Palestine", "iso3": "PSE", "source": "HOTOSM/OSM", "latitude": 31.271474, "longitude": 34.26795 }, "geometry": { "type": "Point", "coordinates": [ 34.2679495, 31.2714738 ] } },
{ "type": "Feature", "properties": { "osm_id": "", "name": "Shafa Amro Secondary School for girle", "amenity": "school", "building": null, "operator": "", "capacity": "", "addr_city": "", "country": "Palestine", "iso3": "PSE", "source": "HOTOSM/OSM", "latitude": 31.270979, "longitude": 34.268238 }, "geometry": { "type": "Point", "coordinates": [ 34.2682378, 31.2709789 ] } },
{ "type": "Feature", "properties": { "osm_id": "", "name": "Almanar Kindergarten", "amenity": "kindergarten", "building": null, "operator": "", "capacity": "", "addr_city": "", "country": "Palestine", "iso3": "PSE", "source": "HOTOSM/OSM", "latitude": 31.2728, "longitude": 34.27129 }, "geometry": { "type": "Point", "coordinates": [ 34.2712903, 31.2728004 ] } },
{ "type": "Feature", "properties": { "osm_id": "", "name": "روضة جيل التمكين", "amenity": "kindergarten", "building": null, "operator": "", "capacity": "", "addr_city": "", "country": "Palestine", "iso3": "PSE", "source": "HOTOSM/OSM", "latitude": 31.26954, "longitude": 34.276621 }, "geometry": { "type": "Point", "coordinates": [ 34.2766209, 31.2695397 ] } },
{ "type": "Feature", "properties": { "osm_id": "", "name": "Al Qadesia Kindergarten", "amenity": "kindergarten", "building": null, "operator": "", "capacity": "", "addr_city": "", "country": "Palestine", "iso3": "PSE", "source": "HOTOSM/OSM", "latitude": 31.27389, "longitude": 34.280086 }, "geometry": { "type": "Point", "coordinates": [ 34.2800856, 31.2738896 ] } },
{ "type": "Feature", "properties": { "osm_id": "", "name": "مدرسة العقاد الأساسية والثانوية للبنات", "amenity": "school", "building": null, "operator": "", "capacity": "", "addr_city": "", "country": "Palestine", "iso3": "PSE", "source": "HOTOSM/OSM", "latitude": 31.280529, "longitude": 34.276099 }, "geometry": { "type": "Point", "coordinates": [ 34.2760994, 31.28052915 ] } },
{ "type": "Feature", "properties": { "osm_id": "", "name": "مدرسة الابتدائية", "amenity": null, "building": "school", "operator": "", "capacity": "", "addr_city": "", "country": "Palestine", "iso3": "PSE", "source": "HOTOSM/OSM", "latitude": 31.279199, "longitude": 34.272232 }, "geometry": { "type": "Point", "coordinates": [ 34.272231827222356, 31.279198830131531 ] } },
{ "type": "Feature", "properties": { "osm_id": "", "name": "Kherbet Aladass", "amenity": "kindergarten", "building": null, "operator": "", "capacity": "", "addr_city": "", "country": "Palestine", "iso3": "PSE", "source": "HOTOSM/OSM", "latitude": 31.28515, "longitude": 34.271503 }, "geometry": { "type": "Point", "coordinates": [ 34.271503, 31.28515 ] } },
{ "type": "Feature", "properties": { "osm_id": "", "name": "Rafah Prep Boys (C) School", "amenity": "school", "building": null, "operator": "", "capacity": "", "addr_city": "", "country": "Palestine", "iso3": "PSE", "source": "HOTOSM/OSM", "latitude": 31.290047, "longitude": 34.260411 }, "geometry": { "type": "Point", "coordinates": [ 34.2604112, 31.290047 ] } },
{ "type": "Feature", "properties": { "osm_id": "", "name": "مدارس العرب", "amenity": "school", "building": null, "operator": "", "capacity": "", "addr_city": "", "country": "Palestine", "iso3": "PSE", "source": "HOTOSM/OSM", "latitude": 31.28999, "longitude": 34.260691 }, "geometry": { "type": "Point", "coordinates": [ 34.260690687438789, 31.289989875663188 ] } },
{ "type": "Feature", "properties": { "osm_id": "", "name": "Ibn Al-Haytham Elementary School", "amenity": "school", "building": "yes", "operator": "", "capacity": "", "addr_city": "", "country": "Palestine", "iso3": "PSE", "source": "HOTOSM/OSM", "latitude": 31.29001, "longitude": 34.261217 }, "geometry": { "type": "Point", "coordinates": [ 34.261216658274222, 31.290009825883885 ] } },
{ "type": "Feature", "properties": { "osm_id": "", "name": "Abu Baker El Sedeak Shoole", "amenity": "school", "building": null, "operator": "", "capacity": "", "addr_city": "", "country": "Palestine", "iso3": "PSE", "source": "HOTOSM/OSM", "latitude": 31.323722, "longitude": 34.302256 }, "geometry": { "type": "Point", "coordinates": [ 34.302255963609007, 31.323721781443023 ] } },
{ "type": "Feature", "properties": { "osm_id": "", "name": "Al Masmeya Secondary Female School", "amenity": "school", "building": null, "operator": "", "capacity": "", "addr_city": "", "country": "Palestine", "iso3": "PSE", "source": "HOTOSM/OSM", "latitude": 31.294952, "longitude": 34.291389 }, "geometry": { "type": "Point", "coordinates": [ 34.291388846356774, 31.294951804827619 ] } },
{ "type": "Feature", "properties": { "osm_id": "", "name": "مدرسة اسرار القبندب", "amenity": "school", "building": null, "operator": "", "capacity": "", "addr_city": "", "country": "Palestine", "iso3": "PSE", "source": "HOTOSM/OSM", "latitude": 31.29031, "longitude": 34.286796 }, "geometry": { "type": "Point", "coordinates": [ 34.2867957, 31.2903101 ] } },
{ "type": "Feature", "properties": { "osm_id": "", "name": "", "amenity": "school", "building": null, "operator": "", "capacity": "", "addr_city": "", "country": "Palestine", "iso3": "PSE", "source": "HOTOSM/OSM", "latitude": 31.273349, "longitude": 34.287835 }, "geometry": { "type": "Point", "coordinates": [ 34.287834560469072, 31.27334929511742 ] } },
{ "type": "Feature", "properties": { "osm_id": "", "name": "مدرسة زهرة المدائن للبنات", "amenity": "school", "building": null, "operator": "", "capacity": "", "addr_city": "", "country": "Palestine", "iso3": "PSE", "source": "HOTOSM/OSM", "latitude": 31.273446, "longitude": 34.287727 }, "geometry": { "type": "Point", "coordinates": [ 34.2877268, 31.2734461 ] } },
{ "type": "Feature", "properties": { "osm_id": "", "name": "مدرسة أبن خلدون للبنين", "amenity": "school", "building": null, "operator": "", "capacity": "", "addr_city": "", "country": "Palestine", "iso3": "PSE", "source": "HOTOSM/OSM", "latitude": 31.273141, "longitude": 34.287275 }, "geometry": { "type": "Point", "coordinates": [ 34.2872745, 31.2731414 ] } },
{ "type": "Feature", "properties": { "osm_id": "", "name": "", "amenity": "school", "building": null, "operator": "", "capacity": "", "addr_city": "", "country": "Palestine", "iso3": "PSE", "source": "HOTOSM/OSM", "latitude": 31.272977, "longitude": 34.287276 }, "geometry": { "type": "Point", "coordinates": [ 34.287276047319608, 31.272976676571218 ] } },
{ "type": "Feature", "properties": { "osm_id": "", "name": "Kasan Kanfany School", "amenity": "school", "building": null, "operator": "", "capacity": "", "addr_city": "", "country": "Palestine", "iso3": "PSE", "source": "HOTOSM/OSM", "latitude": 31.280128, "longitude": 34.306772 }, "geometry": { "type": "Point", "coordinates": [ 34.306772229285208, 31.280128466316786 ] } },
{ "type": "Feature", "properties": { "osm_id": "", "name": "Islamic University - The South Branch", "amenity": "university", "building": null, "operator": "", "capacity": "", "addr_city": "", "country": "Palestine", "iso3": "PSE", "source": "HOTOSM/OSM", "latitude": 31.322658, "longitude": 34.321049 }, "geometry": { "type": "Point", "coordinates": [ 34.321048996222146, 31.322657573318697 ] } },
{ "type": "Feature", "properties": { "osm_id": "", "name": "Road Al Mostqbal", "amenity": "school", "building": null, "operator": "", "capacity": "", "addr_city": "", "country": "Palestine", "iso3": "PSE", "source": "HOTOSM/OSM", "latitude": 31.317684, "longitude": 34.324969 }, "geometry": { "type": "Point", "coordinates": [ 34.32496891198285, 31.317684027224384 ] } },
{ "type": "Feature", "properties": { "osm_id": "", "name": "", "amenity": "school", "building": null, "operator": "", "capacity": "", "addr_city": "", "country": "Palestine", "iso3": "PSE", "source": "HOTOSM/OSM", "latitude": 31.302233, "longitude": 34.322209 }, "geometry": { "type": "Point", "coordinates": [ 34.322209066637981, 31.302233471392078 ] } },
{ "type": "Feature", "properties": { "osm_id": "", "name": "", "amenity": "school", "building": null, "operator": "", "capacity": "", "addr_city": "", "country": "Palestine", "iso3": "PSE", "source": "HOTOSM/OSM", "latitude": 31.302709, "longitude": 34.318887 }, "geometry": { "type": "Point", "coordinates": [ 34.318886936399267, 31.302709166788805 ] } },
{ "type": "Feature", "properties": { "osm_id": "", "name": "", "amenity": "school", "building": null, "operator": "", "capacity": "", "addr_city": "", "country": "Palestine", "iso3": "PSE", "source": "HOTOSM/OSM", "latitude": 31.300347, "longitude": 34.318709 }, "geometry": { "type": "Point", "coordinates": [ 34.318708549594632, 31.300346976881912 ] } },
{ "type": "Feature", "properties": { "osm_id": "", "name": "", "amenity": null, "building": "school", "operator": "", "capacity": "", "addr_city": "", "country": "Palestine", "iso3": "PSE", "source": "HOTOSM/OSM", "latitude": 31.299641, "longitude": 34.318855 }, "geometry": { "type": "Point", "coordinates": [ 34.318855356165258, 31.2996405258728 ] } },
{ "type": "Feature", "properties": { "osm_id": "", "name": "Al Fokhare School", "amenity": "school", "building": null, "operator": "", "capacity": "", "addr_city": "", "country": "Palestine", "iso3": "PSE", "source": "HOTOSM/OSM", "latitude": 31.29979, "longitude": 34.319009 }, "geometry": { "type": "Point", "coordinates": [ 34.319008996997681, 31.299790426575214 ] } },
{ "type": "Feature", "properties": { "osm_id": "", "name": "مدرسة عسقلان", "amenity": "school", "building": null, "operator": "", "capacity": "", "addr_city": "", "country": "Palestine", "iso3": "PSE", "source": "HOTOSM/OSM", "latitude": 31.312946, "longitude": 34.332559 }, "geometry": { "type": "Point", "coordinates": [ 34.3325586, 31.3129465 ] } },
{ "type": "Feature", "properties": { "osm_id": "", "name": "Abo Teama", "amenity": "school", "building": null, "operator": "", "capacity": "", "addr_city": "", "country": "Palestine", "iso3": "PSE", "source": "HOTOSM/OSM", "latitude": 31.307746, "longitude": 34.345244 }, "geometry": { "type": "Point", "coordinates": [ 34.345243811639712, 31.307745680048857 ] } },
{ "type": "Feature", "properties": { "osm_id": "", "name": "إبراهيم خزاعة", "amenity": "kindergarten", "building": null, "operator": "", "capacity": "", "addr_city": "خزاعة", "country": "Palestine", "iso3": "PSE", "source": "HOTOSM/OSM", "latitude": 31.302922, "longitude": 34.356347 }, "geometry": { "type": "Point", "coordinates": [ 34.3563475, 31.3029221 ] } },
{ "type": "Feature", "properties": { "osm_id": "", "name": "", "amenity": null, "building": "school", "operator": "", "capacity": "", "addr_city": "", "country": "Palestine", "iso3": "PSE", "source": "HOTOSM/OSM", "latitude": 31.307835, "longitude": 34.361448 }, "geometry": { "type": "Point", "coordinates": [ 34.361447530342289, 31.307835396859698 ] } },
{ "type": "Feature", "properties": { "osm_id": "", "name": "", "amenity": null, "building": "school", "operator": "", "capacity": "", "addr_city": "", "country": "Palestine", "iso3": "PSE", "source": "HOTOSM/OSM", "latitude": 31.308109, "longitude": 34.36133 }, "geometry": { "type": "Point", "coordinates": [ 34.361330021089138, 31.308108564350992 ] } },
{ "type": "Feature", "properties": { "osm_id": "", "name": "", "amenity": null, "building": "school", "operator": "", "capacity": "", "addr_city": "", "country": "Palestine", "iso3": "PSE", "source": "HOTOSM/OSM", "latitude": 31.308165, "longitude": 34.361027 }, "geometry": { "type": "Point", "coordinates": [ 34.3610266, 31.30816525 ] } },
{ "type": "Feature", "properties": { "osm_id": "", "name": "", "amenity": "school", "building": null, "operator": "", "capacity": "", "addr_city": "", "country": "Palestine", "iso3": "PSE", "source": "HOTOSM/OSM", "latitude": 31.307986, "longitude": 34.361226 }, "geometry": { "type": "Point", "coordinates": [ 34.361226252743258, 31.307986099096969 ] } },
{ "type": "Feature", "properties": { "osm_id": "", "name": "مدرسة خزاعة الابتدائية المشتركة للاجئين", "amenity": "kindergarten", "building": null, "operator": "", "capacity": "", "addr_city": "خزاعة", "country": "Palestine", "iso3": "PSE", "source": "HOTOSM/OSM", "latitude": 31.308013, "longitude": 34.361074 }, "geometry": { "type": "Point", "coordinates": [ 34.3610739, 31.3080132 ] } },
{ "type": "Feature", "properties": { "osm_id": "", "name": "", "amenity": null, "building": "school", "operator": "", "capacity": "", "addr_city": "", "country": "Palestine", "iso3": "PSE", "source": "HOTOSM/OSM", "latitude": 31.307833, "longitude": 34.361097 }, "geometry": { "type": "Point", "coordinates": [ 34.361097103266559, 31.307832596797962 ] } },
{ "type": "Feature", "properties": { "osm_id": "", "name": "Sbah Abu Warda Kindergarten", "amenity": "kindergarten", "building": null, "operator": "", "capacity": "", "addr_city": "", "country": "Palestine", "iso3": "PSE", "source": "HOTOSM/OSM", "latitude": 31.309263, "longitude": 34.358204 }, "geometry": { "type": "Point", "coordinates": [ 34.3582037, 31.3092628 ] } },
{ "type": "Feature", "properties": { "osm_id": "", "name": "Esnad Attofola", "amenity": "kindergarten", "building": null, "operator": "", "capacity": "", "addr_city": "", "country": "Palestine", "iso3": "PSE", "source": "HOTOSM/OSM", "latitude": 31.31096, "longitude": 34.357002 }, "geometry": { "type": "Point", "coordinates": [ 34.357001678251613, 31.310960166613864 ] } },
{ "type": "Feature", "properties": { "osm_id": "", "name": "Abasan primary male school", "amenity": "school", "building": null, "operator": "", "capacity": "", "addr_city": "", "country": "Palestine", "iso3": "PSE", "source": "HOTOSM/OSM", "latitude": 31.30268, "longitude": 34.366195 }, "geometry": { "type": "Point", "coordinates": [ 34.366195453080465, 31.302679670151139 ] } },
{ "type": "Feature", "properties": { "osm_id": "", "name": "Martyrs Khaza'a secondary school for girls", "amenity": "school", "building": null, "operator": "", "capacity": "", "addr_city": "", "country": "Palestine", "iso3": "PSE", "source": "HOTOSM/OSM", "latitude": 31.302715, "longitude": 34.366127 }, "geometry": { "type": "Point", "coordinates": [ 34.3661275, 31.3027145 ] } },
{ "type": "Feature", "properties": { "osm_id": "", "name": "Khaza'a Martyrs Secondary School for Boys", "amenity": "school", "building": null, "operator": "", "capacity": "", "addr_city": "", "country": "Palestine", "iso3": "PSE", "source": "HOTOSM/OSM", "latitude": 31.302579, "longitude": 34.365796 }, "geometry": { "type": "Point", "coordinates": [ 34.3657956, 31.3025794 ] } },
{ "type": "Feature", "properties": { "osm_id": "", "name": "Abasan primary male school", "amenity": "school", "building": null, "operator": "", "capacity": "", "addr_city": "", "country": "Palestine", "iso3": "PSE", "source": "HOTOSM/OSM", "latitude": 31.302482, "longitude": 34.365862 }, "geometry": { "type": "Point", "coordinates": [ 34.365861553342747, 31.302482419388792 ] } },
{ "type": "Feature", "properties": { "osm_id": "", "name": "", "amenity": "school", "building": null, "operator": "", "capacity": "", "addr_city": "", "country": "Palestine", "iso3": "PSE", "source": "HOTOSM/OSM", "latitude": 31.321646, "longitude": 34.882315 }, "geometry": { "type": "Point", "coordinates": [ 34.882314906593365, 31.321645924795902 ] } },
{ "type": "Feature", "properties": { "osm_id": "", "name": "", "amenity": "school", "building": null, "operator": "", "capacity": "", "addr_city": "", "country": "Palestine", "iso3": "PSE", "source": "HOTOSM/OSM", "latitude": 31.536528, "longitude": 34.544843 }, "geometry": { "type": "Point", "coordinates": [ 34.544842511220935, 31.536528088177249 ] } },
{ "type": "Feature", "properties": { "osm_id": "", "name": "", "amenity": null, "building": "school", "operator": "", "capacity": "", "addr_city": "", "country": "Palestine", "iso3": "PSE", "source": "HOTOSM/OSM", "latitude": 31.536616, "longitude": 34.545051 }, "geometry": { "type": "Point", "coordinates": [ 34.545050714703983, 31.536615919013474 ] } },
{ "type": "Feature", "properties": { "osm_id": "", "name": "", "amenity": null, "building": "school", "operator": "", "capacity": "", "addr_city": "", "country": "Palestine", "iso3": "PSE", "source": "HOTOSM/OSM", "latitude": 31.536337, "longitude": 34.544823 }, "geometry": { "type": "Point", "coordinates": [ 34.544823381931359, 31.536337284948416 ] } },
{ "type": "Feature", "properties": { "osm_id": "", "name": "", "amenity": "kindergarten", "building": null, "operator": "", "capacity": "", "addr_city": "", "country": "Palestine", "iso3": "PSE", "source": "HOTOSM/OSM", "latitude": 31.535892, "longitude": 34.582193 }, "geometry": { "type": "Point", "coordinates": [ 34.58219293917945, 31.535892415542509 ] } },
{ "type": "Feature", "properties": { "osm_id": "", "name": "בי\"ס יסודי התורה", "amenity": "school", "building": null, "operator": "", "capacity": "", "addr_city": "", "country": "Palestine", "iso3": "PSE", "source": "HOTOSM/OSM", "latitude": 31.534725, "longitude": 34.585617 }, "geometry": { "type": "Point", "coordinates": [ 34.585616509533622, 31.534724814214847 ] } },
{ "type": "Feature", "properties": { "osm_id": "", "name": "", "amenity": null, "building": "school", "operator": "", "capacity": "", "addr_city": "", "country": "Palestine", "iso3": "PSE", "source": "HOTOSM/OSM", "latitude": 31.534527, "longitude": 34.586041 }, "geometry": { "type": "Point", "coordinates": [ 34.586040717609649, 31.53452713554201 ] } },
{ "type": "Feature", "properties": { "osm_id": "", "name": "", "amenity": null, "building": "school", "operator": "", "capacity": "", "addr_city": "", "country": "Palestine", "iso3": "PSE", "source": "HOTOSM/OSM", "latitude": 31.53464, "longitude": 34.585451 }, "geometry": { "type": "Point", "coordinates": [ 34.585450636989897, 31.534639807997582 ] } },
{ "type": "Feature", "properties": { "osm_id": "", "name": "", "amenity": null, "building": "school", "operator": "", "capacity": "", "addr_city": "", "country": "Palestine", "iso3": "PSE", "source": "HOTOSM/OSM", "latitude": 31.531378, "longitude": 34.586992 }, "geometry": { "type": "Point", "coordinates": [ 34.586992179894239, 31.531378294131155 ] } },
{ "type": "Feature", "properties": { "osm_id": "", "name": "", "amenity": "kindergarten", "building": "yes", "operator": "", "capacity": "", "addr_city": "", "country": "Palestine", "iso3": "PSE", "source": "HOTOSM/OSM", "latitude": 31.529856, "longitude": 34.589024 }, "geometry": { "type": "Point", "coordinates": [ 34.589023740310402, 31.529856476296029 ] } },
{ "type": "Feature", "properties": { "osm_id": "", "name": "", "amenity": "kindergarten", "building": null, "operator": "", "capacity": "", "addr_city": "", "country": "Palestine", "iso3": "PSE", "source": "HOTOSM/OSM", "latitude": 31.526297, "longitude": 34.589323 }, "geometry": { "type": "Point", "coordinates": [ 34.589322868150255, 31.526297335853624 ] } },
{ "type": "Feature", "properties": { "osm_id": "", "name": "", "amenity": null, "building": "college", "operator": "", "capacity": "", "addr_city": "", "country": "Palestine", "iso3": "PSE", "source": "HOTOSM/OSM", "latitude": 31.524415, "longitude": 34.590144 }, "geometry": { "type": "Point", "coordinates": [ 34.590144132767492, 31.524415102440031 ] } },
{ "type": "Feature", "properties": { "osm_id": "", "name": "", "amenity": null, "building": "college", "operator": "", "capacity": "", "addr_city": "", "country": "Palestine", "iso3": "PSE", "source": "HOTOSM/OSM", "latitude": 31.524441, "longitude": 34.589965 }, "geometry": { "type": "Point", "coordinates": [ 34.5899654, 31.5244415 ] } },
{ "type": "Feature", "properties": { "osm_id": "", "name": "", "amenity": "kindergarten", "building": null, "operator": "", "capacity": "", "addr_city": "", "country": "Palestine", "iso3": "PSE", "source": "HOTOSM/OSM", "latitude": 31.525795, "longitude": 34.588438 }, "geometry": { "type": "Point", "coordinates": [ 34.588437914660773, 31.525794984660401 ] } },
{ "type": "Feature", "properties": { "osm_id": "", "name": "", "amenity": null, "building": "school", "operator": "", "capacity": "", "addr_city": "", "country": "Palestine", "iso3": "PSE", "source": "HOTOSM/OSM", "latitude": 31.526527, "longitude": 34.587844 }, "geometry": { "type": "Point", "coordinates": [ 34.587844364851513, 31.526527480233774 ] } },
{ "type": "Feature", "properties": { "osm_id": "", "name": "בי\"ס תורני מדעי אמי\"ת", "amenity": "school", "building": null, "operator": "", "capacity": "", "addr_city": "", "country": "Palestine", "iso3": "PSE", "source": "HOTOSM/OSM", "latitude": 31.526305, "longitude": 34.587836 }, "geometry": { "type": "Point", "coordinates": [ 34.587835778149532, 31.526304953581946 ] } },
{ "type": "Feature", "properties": { "osm_id": "", "name": "", "amenity": null, "building": "school", "operator": "", "capacity": "", "addr_city": "", "country": "Palestine", "iso3": "PSE", "source": "HOTOSM/OSM", "latitude": 31.526401, "longitude": 34.588283 }, "geometry": { "type": "Point", "coordinates": [ 34.58828315, 31.52640065 ] } },
{ "type": "Feature", "properties": { "osm_id": "", "name": "", "amenity": null, "building": "school", "operator": "", "capacity": "", "addr_city": "", "country": "Palestine", "iso3": "PSE", "source": "HOTOSM/OSM", "latitude": 31.526079, "longitude": 34.588503 }, "geometry": { "type": "Point", "coordinates": [ 34.588502816177879, 31.526079000533446 ] } },
{ "type": "Feature", "properties": { "osm_id": "", "name": "", "amenity": "kindergarten", "building": null, "operator": "", "capacity": "", "addr_city": "", "country": "Palestine", "iso3": "PSE", "source": "HOTOSM/OSM", "latitude": 31.526086, "longitude": 34.588513 }, "geometry": { "type": "Point", "coordinates": [ 34.588512570402152, 31.526086336227088 ] } },
{ "type": "Feature", "properties": { "osm_id": "", "name": "", "amenity": null, "building": "school", "operator": "", "capacity": "", "addr_city": "", "country": "Palestine", "iso3": "PSE", "source": "HOTOSM/OSM", "latitude": 31.526368, "longitude": 34.588624 }, "geometry": { "type": "Point", "coordinates": [ 34.588624020304493, 31.526367522149823 ] } },
{ "type": "Feature", "properties": { "osm_id": "", "name": "", "amenity": "kindergarten", "building": null, "operator": "", "capacity": "", "addr_city": "", "country": "Palestine", "iso3": "PSE", "source": "HOTOSM/OSM", "latitude": 31.526366, "longitude": 34.58861 }, "geometry": { "type": "Point", "coordinates": [ 34.588609610992414, 31.526365851137058 ] } },
{ "type": "Feature", "properties": { "osm_id": "", "name": "", "amenity": "kindergarten", "building": "yes", "operator": "", "capacity": "", "addr_city": "", "country": "Palestine", "iso3": "PSE", "source": "HOTOSM/OSM", "latitude": 31.529949, "longitude": 34.586716 }, "geometry": { "type": "Point", "coordinates": [ 34.586715970832451, 31.52994900615089 ] } },
{ "type": "Feature", "properties": { "osm_id": "", "name": "", "amenity": null, "building": "school", "operator": "", "capacity": "", "addr_city": "", "country": "Palestine", "iso3": "PSE", "source": "HOTOSM/OSM", "latitude": 31.530977, "longitude": 34.587032 }, "geometry": { "type": "Point", "coordinates": [ 34.587031668474218, 31.530977101564854 ] } },
{ "type": "Feature", "properties": { "osm_id": "", "name": "", "amenity": null, "building": "school", "operator": "", "capacity": "", "addr_city": "", "country": "Palestine", "iso3": "PSE", "source": "HOTOSM/OSM", "latitude": 31.530839, "longitude": 34.586571 }, "geometry": { "type": "Point", "coordinates": [ 34.586570668749744, 31.530839201891581 ] } },
{ "type": "Feature", "properties": { "osm_id": "", "name": "בי\"ס אלון", "amenity": "school", "building": null, "operator": "", "capacity": "", "addr_city": "", "country": "Palestine", "iso3": "PSE", "source": "HOTOSM/OSM", "latitude": 31.531047, "longitude": 34.586533 }, "geometry": { "type": "Point", "coordinates": [ 34.5865333, 31.5310472 ] } },
{ "type": "Feature", "properties": { "osm_id": "", "name": "", "amenity": null, "building": "school", "operator": "", "capacity": "", "addr_city": "", "country": "Palestine", "iso3": "PSE", "source": "HOTOSM/OSM", "latitude": 31.531193, "longitude": 34.586525 }, "geometry": { "type": "Point", "coordinates": [ 34.586525346932859, 31.531192829627731 ] } },
{ "type": "Feature", "properties": { "osm_id": "", "name": "", "amenity": null, "building": "school", "operator": "", "capacity": "", "addr_city": "", "country": "Palestine", "iso3": "PSE", "source": "HOTOSM/OSM", "latitude": 31.530817, "longitude": 34.582633 }, "geometry": { "type": "Point", "coordinates": [ 34.582632807833953, 31.53081721977065 ] } },
{ "type": "Feature", "properties": { "osm_id": "", "name": "בי\"ס הדר", "amenity": "school", "building": null, "operator": "", "capacity": "", "addr_city": "", "country": "Palestine", "iso3": "PSE", "source": "HOTOSM/OSM", "latitude": 31.530896, "longitude": 34.582608 }, "geometry": { "type": "Point", "coordinates": [ 34.582608134564829, 31.530896068856528 ] } },
{ "type": "Feature", "properties": { "osm_id": "", "name": "גן ציפורן", "amenity": "kindergarten", "building": null, "operator": "", "capacity": "", "addr_city": "", "country": "Palestine", "iso3": "PSE", "source": "HOTOSM/OSM", "latitude": 31.523446, "longitude": 34.588963 }, "geometry": { "type": "Point", "coordinates": [ 34.588963285684052, 31.523446416475132 ] } },
{ "type": "Feature", "properties": { "osm_id": "", "name": "", "amenity": null, "building": "school", "operator": "", "capacity": "", "addr_city": "", "country": "Palestine", "iso3": "PSE", "source": "HOTOSM/OSM", "latitude": 31.522044, "longitude": 34.588935 }, "geometry": { "type": "Point", "coordinates": [ 34.5889354, 31.52204355 ] } },
{ "type": "Feature", "properties": { "osm_id": "", "name": "", "amenity": null, "building": "school", "operator": "", "capacity": "", "addr_city": "", "country": "Palestine", "iso3": "PSE", "source": "HOTOSM/OSM", "latitude": 31.521815, "longitude": 34.589177 }, "geometry": { "type": "Point", "coordinates": [ 34.589177499165402, 31.521814817349249 ] } },
{ "type": "Feature", "properties": { "osm_id": "", "name": "", "amenity": null, "building": "school", "operator": "", "capacity": "", "addr_city": "", "country": "Palestine", "iso3": "PSE", "source": "HOTOSM/OSM", "latitude": 31.521621, "longitude": 34.588988 }, "geometry": { "type": "Point", "coordinates": [ 34.588988496955963, 31.521621170024634 ] } },
{ "type": "Feature", "properties": { "osm_id": "", "name": "קרית חינוך דתית אמי\"ת", "amenity": "school", "building": null, "operator": "", "capacity": "", "addr_city": "", "country": "Palestine", "iso3": "PSE", "source": "HOTOSM/OSM", "latitude": 31.521541, "longitude": 34.589689 }, "geometry": { "type": "Point", "coordinates": [ 34.589689404260042, 31.521540516524592 ] } },
{ "type": "Feature", "properties": { "osm_id": "", "name": "", "amenity": null, "building": "school", "operator": "", "capacity": "", "addr_city": "", "country": "Palestine", "iso3": "PSE", "source": "HOTOSM/OSM", "latitude": 31.520638, "longitude": 34.590161 }, "geometry": { "type": "Point", "coordinates": [ 34.590160849077243, 31.520637967292149 ] } },
{ "type": "Feature", "properties": { "osm_id": "", "name": "", "amenity": null, "building": "school", "operator": "", "capacity": "", "addr_city": "", "country": "Palestine", "iso3": "PSE", "source": "HOTOSM/OSM", "latitude": 31.520784, "longitude": 34.589911 }, "geometry": { "type": "Point", "coordinates": [ 34.589910657716956, 31.520783705585256 ] } },
{ "type": "Feature", "properties": { "osm_id": "", "name": "המכללה האקדמית ספיר", "amenity": "college", "building": null, "operator": "", "capacity": "", "addr_city": "", "country": "Palestine", "iso3": "PSE", "source": "HOTOSM/OSM", "latitude": 31.509121, "longitude": 34.594415 }, "geometry": { "type": "Point", "coordinates": [ 34.594415462664131, 31.509120540645785 ] } },
{ "type": "Feature", "properties": { "osm_id": "", "name": "", "amenity": null, "building": "college", "operator": "", "capacity": "", "addr_city": "", "country": "Palestine", "iso3": "PSE", "source": "HOTOSM/OSM", "latitude": 31.509193, "longitude": 34.593491 }, "geometry": { "type": "Point", "coordinates": [ 34.593490919778695, 31.509192584740504 ] } },
{ "type": "Feature", "properties": { "osm_id": "", "name": "", "amenity": "school", "building": null, "operator": "", "capacity": "", "addr_city": "", "country": "Palestine", "iso3": "PSE", "source": "HOTOSM/OSM", "latitude": 31.519717, "longitude": 34.591805 }, "geometry": { "type": "Point", "coordinates": [ 34.5918052, 31.51971725 ] } },
{ "type": "Feature", "properties": { "osm_id": "", "name": "", "amenity": null, "building": "kindergarten", "operator": "", "capacity": "", "addr_city": "", "country": "Palestine", "iso3": "PSE", "source": "HOTOSM/OSM", "latitude": 31.519717, "longitude": 34.59184 }, "geometry": { "type": "Point", "coordinates": [ 34.591839656931917, 31.519717116084962 ] } },
{ "type": "Feature", "properties": { "osm_id": "", "name": "", "amenity": "kindergarten", "building": null, "operator": "", "capacity": "", "addr_city": "", "country": "Palestine", "iso3": "PSE", "source": "HOTOSM/OSM", "latitude": 31.520849, "longitude": 34.590536 }, "geometry": { "type": "Point", "coordinates": [ 34.5905357031207, 31.520848932267164 ] } },
{ "type": "Feature", "properties": { "osm_id": "", "name": "גן נורית", "amenity": null, "building": "kindergarten", "operator": "", "capacity": "", "addr_city": "", "country": "Palestine", "iso3": "PSE", "source": "HOTOSM/OSM", "latitude": 31.520733, "longitude": 34.590562 }, "geometry": { "type": "Point", "coordinates": [ 34.59056225, 31.52073265 ] } },
{ "type": "Feature", "properties": { "osm_id": "", "name": "גן חצב", "amenity": null, "building": "kindergarten", "operator": "", "capacity": "", "addr_city": "", "country": "Palestine", "iso3": "PSE", "source": "HOTOSM/OSM", "latitude": 31.520978, "longitude": 34.590442 }, "geometry": { "type": "Point", "coordinates": [ 34.590441514393973, 31.52097813400966 ] } },
{ "type": "Feature", "properties": { "osm_id": "", "name": "גן ניצן", "amenity": "kindergarten", "building": null, "operator": "", "capacity": "", "addr_city": "", "country": "Palestine", "iso3": "PSE", "source": "HOTOSM/OSM", "latitude": 31.522859, "longitude": 34.590887 }, "geometry": { "type": "Point", "coordinates": [ 34.5908873, 31.52285855 ] } },
{ "type": "Feature", "properties": { "osm_id": "", "name": "", "amenity": null, "building": "college", "operator": "", "capacity": "", "addr_city": "", "country": "Palestine", "iso3": "PSE", "source": "HOTOSM/OSM", "latitude": 31.524233, "longitude": 34.59151 }, "geometry": { "type": "Point", "coordinates": [ 34.591510032895592, 31.524232758428177 ] } },
{ "type": "Feature", "properties": { "osm_id": "", "name": "כפר איילים", "amenity": "college", "building": null, "operator": "", "capacity": "", "addr_city": "", "country": "Palestine", "iso3": "PSE", "source": "HOTOSM/OSM", "latitude": 31.523118, "longitude": 34.593484 }, "geometry": { "type": "Point", "coordinates": [ 34.593484008617999, 31.52311822794162 ] } },
{ "type": "Feature", "properties": { "osm_id": "", "name": "", "amenity": "kindergarten", "building": "yes", "operator": "", "capacity": "", "addr_city": "", "country": "Palestine", "iso3": "PSE", "source": "HOTOSM/OSM", "latitude": 31.523773, "longitude": 34.599114 }, "geometry": { "type": "Point", "coordinates": [ 34.59911426581116, 31.523772901927149 ] } },
{ "type": "Feature", "properties": { "osm_id": "", "name": "", "amenity": "kindergarten", "building": "yes", "operator": "", "capacity": "", "addr_city": "", "country": "Palestine", "iso3": "PSE", "source": "HOTOSM/OSM", "latitude": 31.524126, "longitude": 34.599798 }, "geometry": { "type": "Point", "coordinates": [ 34.599798494648745, 31.524126484337735 ] } },
{ "type": "Feature", "properties": { "osm_id": "", "name": "", "amenity": "kindergarten", "building": "yes", "operator": "", "capacity": "", "addr_city": "", "country": "Palestine", "iso3": "PSE", "source": "HOTOSM/OSM", "latitude": 31.524012, "longitude": 34.597708 }, "geometry": { "type": "Point", "coordinates": [ 34.597708261005465, 31.524012425387031 ] } },
{ "type": "Feature", "properties": { "osm_id": "", "name": "גן רקפת", "amenity": "kindergarten", "building": null, "operator": "", "capacity": "", "addr_city": "", "country": "Palestine", "iso3": "PSE", "source": "HOTOSM/OSM", "latitude": 31.520956, "longitude": 34.597912 }, "geometry": { "type": "Point", "coordinates": [ 34.597911926220732, 31.520955694571953 ] } },
{ "type": "Feature", "properties": { "osm_id": "", "name": "גן ניצן", "amenity": "kindergarten", "building": null, "operator": "", "capacity": "", "addr_city": "", "country": "Palestine", "iso3": "PSE", "source": "HOTOSM/OSM", "latitude": 31.521825, "longitude": 34.596529 }, "geometry": { "type": "Point", "coordinates": [ 34.596529273063496, 31.521825253005176 ] } },
{ "type": "Feature", "properties": { "osm_id": "", "name": "", "amenity": "kindergarten", "building": "yes", "operator": "", "capacity": "", "addr_city": "", "country": "Palestine", "iso3": "PSE", "source": "HOTOSM/OSM", "latitude": 31.52346, "longitude": 34.597337 }, "geometry": { "type": "Point", "coordinates": [ 34.597336824837448, 31.52345969517047 ] } },
{ "type": "Feature", "properties": { "osm_id": "", "name": "", "amenity": "kindergarten", "building": null, "operator": "", "capacity": "", "addr_city": "", "country": "Palestine", "iso3": "PSE", "source": "HOTOSM/OSM", "latitude": 31.525424, "longitude": 34.597338 }, "geometry": { "type": "Point", "coordinates": [ 34.59733845, 31.5254241 ] } },
{ "type": "Feature", "properties": { "osm_id": "", "name": "רימון - בית ספר למוסיקה", "amenity": "school", "building": null, "operator": "", "capacity": "", "addr_city": "", "country": "Palestine", "iso3": "PSE", "source": "HOTOSM/OSM", "latitude": 31.526701, "longitude": 34.596327 }, "geometry": { "type": "Point", "coordinates": [ 34.596326699341581, 31.526701495193731 ] } },
{ "type": "Feature", "properties": { "osm_id": "", "name": "", "amenity": "kindergarten", "building": "yes", "operator": "", "capacity": "", "addr_city": "", "country": "Palestine", "iso3": "PSE", "source": "HOTOSM/OSM", "latitude": 31.524755, "longitude": 34.59784 }, "geometry": { "type": "Point", "coordinates": [ 34.597840035782212, 31.524754594992423 ] } },
{ "type": "Feature", "properties": { "osm_id": "", "name": "", "amenity": null, "building": "college", "operator": "", "capacity": "", "addr_city": "", "country": "Palestine", "iso3": "PSE", "source": "HOTOSM/OSM", "latitude": 31.524766, "longitude": 34.600274 }, "geometry": { "type": "Point", "coordinates": [ 34.600273961527208, 31.524766202008088 ] } },
{ "type": "Feature", "properties": { "osm_id": "", "name": "", "amenity": null, "building": "college", "operator": "", "capacity": "", "addr_city": "", "country": "Palestine", "iso3": "PSE", "source": "HOTOSM/OSM", "latitude": 31.524846, "longitude": 34.599979 }, "geometry": { "type": "Point", "coordinates": [ 34.599979236544513, 31.524845916348681 ] } },
{ "type": "Feature", "properties": { "osm_id": "", "name": "מכינה קדם צבאית נחשון", "amenity": "college", "building": null, "operator": "", "capacity": "", "addr_city": "", "country": "Palestine", "iso3": "PSE", "source": "HOTOSM/OSM", "latitude": 31.524609, "longitude": 34.60035 }, "geometry": { "type": "Point", "coordinates": [ 34.600350064718093, 31.524609155220578 ] } },
{ "type": "Feature", "properties": { "osm_id": "", "name": "", "amenity": null, "building": "college", "operator": "", "capacity": "", "addr_city": "", "country": "Palestine", "iso3": "PSE", "source": "HOTOSM/OSM", "latitude": 31.524733, "longitude": 34.60056 }, "geometry": { "type": "Point", "coordinates": [ 34.600559804766092, 31.524733376821867 ] } },
{ "type": "Feature", "properties": { "osm_id": "", "name": "", "amenity": "kindergarten", "building": "yes", "operator": "", "capacity": "", "addr_city": "", "country": "Palestine", "iso3": "PSE", "source": "HOTOSM/OSM", "latitude": 31.525252, "longitude": 34.601449 }, "geometry": { "type": "Point", "coordinates": [ 34.60144875000001, 31.5252518 ] } },
{ "type": "Feature", "properties": { "osm_id": "", "name": "", "amenity": "kindergarten", "building": "yes", "operator": "", "capacity": "", "addr_city": "", "country": "Palestine", "iso3": "PSE", "source": "HOTOSM/OSM", "latitude": 31.526174, "longitude": 34.600618 }, "geometry": { "type": "Point", "coordinates": [ 34.600617509296669, 31.526173664495044 ] } },
{ "type": "Feature", "properties": { "osm_id": "", "name": "", "amenity": null, "building": "school", "operator": "", "capacity": "", "addr_city": "", "country": "Palestine", "iso3": "PSE", "source": "HOTOSM/OSM", "latitude": 31.527662, "longitude": 34.601702 }, "geometry": { "type": "Point", "coordinates": [ 34.601701598811893, 31.5276615382537 ] } },
{ "type": "Feature", "properties": { "osm_id": "", "name": "ביה\"ס הדר החדש", "amenity": "school", "building": null, "operator": "", "capacity": "", "addr_city": "", "country": "Palestine", "iso3": "PSE", "source": "HOTOSM/OSM", "latitude": 31.528923, "longitude": 34.600193 }, "geometry": { "type": "Point", "coordinates": [ 34.600193355190875, 31.528923481830951 ] } },
{ "type": "Feature", "properties": { "osm_id": "", "name": "", "amenity": null, "building": "school", "operator": "", "capacity": "", "addr_city": "", "country": "Palestine", "iso3": "PSE", "source": "HOTOSM/OSM", "latitude": 31.528973, "longitude": 34.600225 }, "geometry": { "type": "Point", "coordinates": [ 34.60022478840618, 31.528973415916838 ] } },
{ "type": "Feature", "properties": { "osm_id": "", "name": "", "amenity": null, "building": "school", "operator": "", "capacity": "", "addr_city": "", "country": "Palestine", "iso3": "PSE", "source": "HOTOSM/OSM", "latitude": 31.52823, "longitude": 34.60187 }, "geometry": { "type": "Point", "coordinates": [ 34.601869705983624, 31.528229714029695 ] } },
{ "type": "Feature", "properties": { "osm_id": "", "name": "", "amenity": null, "building": "college", "operator": "", "capacity": "", "addr_city": "", "country": "Palestine", "iso3": "PSE", "source": "HOTOSM/OSM", "latitude": 31.529484, "longitude": 34.601808 }, "geometry": { "type": "Point", "coordinates": [ 34.601808461487195, 31.529484492225567 ] } },
{ "type": "Feature", "properties": { "osm_id": "", "name": "", "amenity": null, "building": "college", "operator": "", "capacity": "", "addr_city": "", "country": "Palestine", "iso3": "PSE", "source": "HOTOSM/OSM", "latitude": 31.529602, "longitude": 34.601299 }, "geometry": { "type": "Point", "coordinates": [ 34.601299298540603, 31.529601677824079 ] } },
{ "type": "Feature", "properties": { "osm_id": "", "name": "", "amenity": "college", "building": null, "operator": "", "capacity": "", "addr_city": "", "country": "Palestine", "iso3": "PSE", "source": "HOTOSM/OSM", "latitude": 31.529713, "longitude": 34.602111 }, "geometry": { "type": "Point", "coordinates": [ 34.602110645029491, 31.529712515115744 ] } },
{ "type": "Feature", "properties": { "osm_id": "", "name": "", "amenity": null, "building": "college", "operator": "", "capacity": "", "addr_city": "", "country": "Palestine", "iso3": "PSE", "source": "HOTOSM/OSM", "latitude": 31.529894, "longitude": 34.601981 }, "geometry": { "type": "Point", "coordinates": [ 34.601981299628605, 31.529893683632658 ] } },
{ "type": "Feature", "properties": { "osm_id": "", "name": "ישיבת שדרות", "amenity": "school", "building": null, "operator": "", "capacity": "", "addr_city": "", "country": "Palestine", "iso3": "PSE", "source": "HOTOSM/OSM", "latitude": 31.529932, "longitude": 34.597914 }, "geometry": { "type": "Point", "coordinates": [ 34.597913583181381, 31.529931812162232 ] } },
{ "type": "Feature", "properties": { "osm_id": "", "name": "", "amenity": "kindergarten", "building": "yes", "operator": "", "capacity": "", "addr_city": "", "country": "Palestine", "iso3": "PSE", "source": "HOTOSM/OSM", "latitude": 31.529226, "longitude": 34.598321 }, "geometry": { "type": "Point", "coordinates": [ 34.598321338026032, 31.529226091809779 ] } },
{ "type": "Feature", "properties": { "osm_id": "", "name": "", "amenity": null, "building": "school", "operator": "", "capacity": "", "addr_city": "", "country": "Palestine", "iso3": "PSE", "source": "HOTOSM/OSM", "latitude": 31.529395, "longitude": 34.597442 }, "geometry": { "type": "Point", "coordinates": [ 34.597442328032002, 31.529395196176452 ] } },
{ "type": "Feature", "properties": { "osm_id": "", "name": "בית ספר דתי", "amenity": "school", "building": null, "operator": "", "capacity": "", "addr_city": "", "country": "Palestine", "iso3": "PSE", "source": "HOTOSM/OSM", "latitude": 31.529406, "longitude": 34.597366 }, "geometry": { "type": "Point", "coordinates": [ 34.597366280983216, 31.529405824480424 ] } },
{ "type": "Feature", "properties": { "osm_id": "", "name": "", "amenity": null, "building": "school", "operator": "", "capacity": "", "addr_city": "", "country": "Palestine", "iso3": "PSE", "source": "HOTOSM/OSM", "latitude": 31.529529, "longitude": 34.597127 }, "geometry": { "type": "Point", "coordinates": [ 34.597126583234846, 31.529529325452437 ] } },
{ "type": "Feature", "properties": { "osm_id": "", "name": "", "amenity": null, "building": "college", "operator": "", "capacity": "", "addr_city": "", "country": "Palestine", "iso3": "PSE", "source": "HOTOSM/OSM", "latitude": 31.524518, "longitude": 34.591433 }, "geometry": { "type": "Point", "coordinates": [ 34.591433011524927, 31.52451821461414 ] } },
{ "type": "Feature", "properties": { "osm_id": "", "name": "ישיבת הסדר אפיקי דעת", "amenity": "college", "building": null, "operator": "", "capacity": "", "addr_city": "", "country": "Palestine", "iso3": "PSE", "source": "HOTOSM/OSM", "latitude": 31.524501, "longitude": 34.590652 }, "geometry": { "type": "Point", "coordinates": [ 34.590652488570839, 31.524501223880332 ] } },
{ "type": "Feature", "properties": { "osm_id": "", "name": "", "amenity": null, "building": "college", "operator": "", "capacity": "", "addr_city": "", "country": "Palestine", "iso3": "PSE", "source": "HOTOSM/OSM", "latitude": 31.524618, "longitude": 34.59062 }, "geometry": { "type": "Point", "coordinates": [ 34.590620328540943, 31.524618215708632 ] } },
{ "type": "Feature", "properties": { "osm_id": "", "name": "", "amenity": null, "building": "college", "operator": "", "capacity": "", "addr_city": "", "country": "Palestine", "iso3": "PSE", "source": "HOTOSM/OSM", "latitude": 31.52446, "longitude": 34.590519 }, "geometry": { "type": "Point", "coordinates": [ 34.5905192, 31.52446 ] } },
{ "type": "Feature", "properties": { "osm_id": "", "name": "", "amenity": null, "building": "college", "operator": "", "capacity": "", "addr_city": "", "country": "Palestine", "iso3": "PSE", "source": "HOTOSM/OSM", "latitude": 31.524876, "longitude": 34.590286 }, "geometry": { "type": "Point", "coordinates": [ 34.590286026504522, 31.524876315548745 ] } },
{ "type": "Feature", "properties": { "osm_id": "", "name": "", "amenity": null, "building": "college", "operator": "", "capacity": "", "addr_city": "", "country": "Palestine", "iso3": "PSE", "source": "HOTOSM/OSM", "latitude": 31.530162, "longitude": 34.592242 }, "geometry": { "type": "Point", "coordinates": [ 34.59224225, 31.53016245 ] } },
{ "type": "Feature", "properties": { "osm_id": "", "name": "", "amenity": null, "building": "college", "operator": "", "capacity": "", "addr_city": "", "country": "Palestine", "iso3": "PSE", "source": "HOTOSM/OSM", "latitude": 31.530113, "longitude": 34.592424 }, "geometry": { "type": "Point", "coordinates": [ 34.59242410401103, 31.530112928984213 ] } },
{ "type": "Feature", "properties": { "osm_id": "", "name": "", "amenity": null, "building": "college", "operator": "", "capacity": "", "addr_city": "", "country": "Palestine", "iso3": "PSE", "source": "HOTOSM/OSM", "latitude": 31.529529, "longitude": 34.592408 }, "geometry": { "type": "Point", "coordinates": [ 34.592407584715225, 31.529528930750676 ] } },
{ "type": "Feature", "properties": { "osm_id": "", "name": "ישיבת לב לדעת", "amenity": "college", "building": null, "operator": "", "capacity": "", "addr_city": "", "country": "Palestine", "iso3": "PSE", "source": "HOTOSM/OSM", "latitude": 31.529502, "longitude": 34.592469 }, "geometry": { "type": "Point", "coordinates": [ 34.592469233970498, 31.529501782768477 ] } },
{ "type": "Feature", "properties": { "osm_id": "", "name": "", "amenity": null, "building": "college", "operator": "", "capacity": "", "addr_city": "", "country": "Palestine", "iso3": "PSE", "source": "HOTOSM/OSM", "latitude": 31.529734, "longitude": 34.592668 }, "geometry": { "type": "Point", "coordinates": [ 34.5926679, 31.52973375 ] } },
{ "type": "Feature", "properties": { "osm_id": "", "name": "", "amenity": null, "building": "school", "operator": "", "capacity": "", "addr_city": "", "country": "Palestine", "iso3": "PSE", "source": "HOTOSM/OSM", "latitude": 31.532573, "longitude": 34.591401 }, "geometry": { "type": "Point", "coordinates": [ 34.591401165002225, 31.532572657595285 ] } },
{ "type": "Feature", "properties": { "osm_id": "", "name": "בי\"ס תורני אורות אליהו", "amenity": "school", "building": null, "operator": "", "capacity": "", "addr_city": "", "country": "Palestine", "iso3": "PSE", "source": "HOTOSM/OSM", "latitude": 31.532695, "longitude": 34.591279 }, "geometry": { "type": "Point", "coordinates": [ 34.591278851938355, 31.532695002989527 ] } },
{ "type": "Feature", "properties": { "osm_id": "", "name": "", "amenity": null, "building": "school", "operator": "", "capacity": "", "addr_city": "", "country": "Palestine", "iso3": "PSE", "source": "HOTOSM/OSM", "latitude": 31.532661, "longitude": 34.590627 }, "geometry": { "type": "Point", "coordinates": [ 34.590626767412694, 31.532660542142171 ] } },
{ "type": "Feature", "properties": { "osm_id": "", "name": "", "amenity": null, "building": "school", "operator": "", "capacity": "", "addr_city": "", "country": "Palestine", "iso3": "PSE", "source": "HOTOSM/OSM", "latitude": 31.532531, "longitude": 34.590747 }, "geometry": { "type": "Point", "coordinates": [ 34.590747129935174, 31.532530803267672 ] } },
{ "type": "Feature", "properties": { "osm_id": "", "name": "בי\"ס שקמים מעוז", "amenity": "school", "building": null, "operator": "", "capacity": "", "addr_city": "", "country": "Palestine", "iso3": "PSE", "source": "HOTOSM/OSM", "latitude": 31.533275, "longitude": 34.591947 }, "geometry": { "type": "Point", "coordinates": [ 34.591947442732547, 31.533274688308424 ] } },
{ "type": "Feature", "properties": { "osm_id": "", "name": "", "amenity": null, "building": "school", "operator": "", "capacity": "", "addr_city": "", "country": "Palestine", "iso3": "PSE", "source": "HOTOSM/OSM", "latitude": 31.533268, "longitude": 34.592076 }, "geometry": { "type": "Point", "coordinates": [ 34.592076323139096, 31.533267797038356 ] } },
{ "type": "Feature", "properties": { "osm_id": "", "name": "בי\"ס מעלות", "amenity": "school", "building": null, "operator": "", "capacity": "", "addr_city": "", "country": "Palestine", "iso3": "PSE", "source": "HOTOSM/OSM", "latitude": 31.533839, "longitude": 34.592588 }, "geometry": { "type": "Point", "coordinates": [ 34.592587822177641, 31.533839141115674 ] } },
{ "type": "Feature", "properties": { "osm_id": "", "name": "", "amenity": null, "building": "school", "operator": "", "capacity": "", "addr_city": "", "country": "Palestine", "iso3": "PSE", "source": "HOTOSM/OSM", "latitude": 31.533713, "longitude": 34.59265 }, "geometry": { "type": "Point", "coordinates": [ 34.592650096536566, 31.533713039781578 ] } },
{ "type": "Feature", "properties": { "osm_id": "", "name": "", "amenity": null, "building": "school", "operator": "", "capacity": "", "addr_city": "", "country": "Palestine", "iso3": "PSE", "source": "HOTOSM/OSM", "latitude": 31.53324, "longitude": 34.592491 }, "geometry": { "type": "Point", "coordinates": [ 34.5924911, 31.5332398 ] } },
{ "type": "Feature", "properties": { "osm_id": "", "name": "", "amenity": null, "building": "school", "operator": "", "capacity": "", "addr_city": "", "country": "Palestine", "iso3": "PSE", "source": "HOTOSM/OSM", "latitude": 31.532568, "longitude": 34.592834 }, "geometry": { "type": "Point", "coordinates": [ 34.592834202172703, 31.532567911025239 ] } },
{ "type": "Feature", "properties": { "osm_id": "", "name": "בי\"ס מדעים אלון", "amenity": "school", "building": null, "operator": "", "capacity": "", "addr_city": "", "country": "Palestine", "iso3": "PSE", "source": "HOTOSM/OSM", "latitude": 31.532464, "longitude": 34.592834 }, "geometry": { "type": "Point", "coordinates": [ 34.592834209126288, 31.532463978449087 ] } },
{ "type": "Feature", "properties": { "osm_id": "", "name": "", "amenity": null, "building": "school", "operator": "", "capacity": "", "addr_city": "", "country": "Palestine", "iso3": "PSE", "source": "HOTOSM/OSM", "latitude": 31.532427, "longitude": 34.591887 }, "geometry": { "type": "Point", "coordinates": [ 34.59188744646233, 31.532426964538807 ] } },
{ "type": "Feature", "properties": { "osm_id": "", "name": "", "amenity": "kindergarten", "building": null, "operator": "", "capacity": "", "addr_city": "", "country": "Palestine", "iso3": "PSE", "source": "HOTOSM/OSM", "latitude": 31.536242, "longitude": 34.595167 }, "geometry": { "type": "Point", "coordinates": [ 34.59516721898504, 31.536242081420443 ] } },
{ "type": "Feature", "properties": { "osm_id": "", "name": "", "amenity": null, "building": "kindergarten", "operator": "", "capacity": "", "addr_city": "", "country": "Palestine", "iso3": "PSE", "source": "HOTOSM/OSM", "latitude": 31.536255, "longitude": 34.59515 }, "geometry": { "type": "Point", "coordinates": [ 34.595149816450551, 31.536254945187341 ] } },
{ "type": "Feature", "properties": { "osm_id": "", "name": "בי\"ס תורני ראשית", "amenity": "school", "building": null, "operator": "", "capacity": "", "addr_city": "", "country": "Palestine", "iso3": "PSE", "source": "HOTOSM/OSM", "latitude": 31.535538, "longitude": 34.595166 }, "geometry": { "type": "Point", "coordinates": [ 34.595165747437782, 31.535538354199304 ] } },
{ "type": "Feature", "properties": { "osm_id": "", "name": "", "amenity": null, "building": "school", "operator": "", "capacity": "", "addr_city": "", "country": "Palestine", "iso3": "PSE", "source": "HOTOSM/OSM", "latitude": 31.535571, "longitude": 34.595085 }, "geometry": { "type": "Point", "coordinates": [ 34.595085114634884, 31.535571388910615 ] } },
{ "type": "Feature", "properties": { "osm_id": "", "name": "", "amenity": null, "building": "school", "operator": "", "capacity": "", "addr_city": "", "country": "Palestine", "iso3": "PSE", "source": "HOTOSM/OSM", "latitude": 31.53658, "longitude": 34.595831 }, "geometry": { "type": "Point", "coordinates": [ 34.595831236992836, 31.536579800236638 ] } },
{ "type": "Feature", "properties": { "osm_id": "", "name": "", "amenity": "kindergarten", "building": "yes", "operator": "", "capacity": "", "addr_city": "", "country": "Palestine", "iso3": "PSE", "source": "HOTOSM/OSM", "latitude": 31.53492, "longitude": 34.593062 }, "geometry": { "type": "Point", "coordinates": [ 34.59306175, 31.53491975 ] } },
{ "type": "Feature", "properties": { "osm_id": "", "name": "", "amenity": "kindergarten", "building": "yes", "operator": "", "capacity": "", "addr_city": "", "country": "Palestine", "iso3": "PSE", "source": "HOTOSM/OSM", "latitude": 31.534821, "longitude": 34.59272 }, "geometry": { "type": "Point", "coordinates": [ 34.592719765455968, 31.534820847348435 ] } },
{ "type": "Feature", "properties": { "osm_id": "", "name": "", "amenity": null, "building": "school", "operator": "", "capacity": "", "addr_city": "", "country": "Palestine", "iso3": "PSE", "source": "HOTOSM/OSM", "latitude": 31.538453, "longitude": 34.59934 }, "geometry": { "type": "Point", "coordinates": [ 34.599339609065026, 31.538452837806886 ] } },
{ "type": "Feature", "properties": { "osm_id": "", "name": "", "amenity": null, "building": "school", "operator": "", "capacity": "", "addr_city": "", "country": "Palestine", "iso3": "PSE", "source": "HOTOSM/OSM", "latitude": 31.538022, "longitude": 34.596288 }, "geometry": { "type": "Point", "coordinates": [ 34.596287914476697, 31.538022112706276 ] } },
{ "type": "Feature", "properties": { "osm_id": "", "name": "", "amenity": null, "building": "school", "operator": "", "capacity": "", "addr_city": "", "country": "Palestine", "iso3": "PSE", "source": "HOTOSM/OSM", "latitude": 31.536738, "longitude": 34.596378 }, "geometry": { "type": "Point", "coordinates": [ 34.596377697153592, 31.536737973738433 ] } },
{ "type": "Feature", "properties": { "osm_id": "", "name": "", "amenity": null, "building": "school", "operator": "", "capacity": "", "addr_city": "", "country": "Palestine", "iso3": "PSE", "source": "HOTOSM/OSM", "latitude": 31.536767, "longitude": 34.59614 }, "geometry": { "type": "Point", "coordinates": [ 34.596140094927939, 31.536766576305205 ] } },
{ "type": "Feature", "properties": { "osm_id": "", "name": "חווה חקלאית חינוכית", "amenity": "school", "building": null, "operator": "", "capacity": "", "addr_city": "", "country": "Palestine", "iso3": "PSE", "source": "HOTOSM/OSM", "latitude": 31.53655, "longitude": 34.596138 }, "geometry": { "type": "Point", "coordinates": [ 34.596137670176269, 31.53654995445936 ] } },
{ "type": "Feature", "properties": { "osm_id": "", "name": "מקיף כללי החדש", "amenity": null, "building": "school", "operator": "", "capacity": "", "addr_city": "", "country": "Palestine", "iso3": "PSE", "source": "HOTOSM/OSM", "latitude": 31.53173, "longitude": 34.59651 }, "geometry": { "type": "Point", "coordinates": [ 34.596510479397715, 31.531730490942795 ] } },
{ "type": "Feature", "properties": { "osm_id": "", "name": "מקיף כללי החדש", "amenity": "school", "building": null, "operator": "", "capacity": "", "addr_city": "", "country": "Palestine", "iso3": "PSE", "source": "HOTOSM/OSM", "latitude": 31.531616, "longitude": 34.596752 }, "geometry": { "type": "Point", "coordinates": [ 34.596751686501712, 31.531615978040158 ] } },
{ "type": "Feature", "properties": { "osm_id": "", "name": "", "amenity": "kindergarten", "building": "yes", "operator": "", "capacity": "", "addr_city": "", "country": "Palestine", "iso3": "PSE", "source": "HOTOSM/OSM", "latitude": 31.53213, "longitude": 34.598485 }, "geometry": { "type": "Point", "coordinates": [ 34.598484677637522, 31.532130309118763 ] } },
{ "type": "Feature", "properties": { "osm_id": "", "name": "", "amenity": null, "building": "school", "operator": "", "capacity": "", "addr_city": "", "country": "Palestine", "iso3": "PSE", "source": "HOTOSM/OSM", "latitude": 31.532374, "longitude": 34.600032 }, "geometry": { "type": "Point", "coordinates": [ 34.600032161645551, 31.532374032648324 ] } },
{ "type": "Feature", "properties": { "osm_id": "", "name": "ביה\"ס הרוא\"ה החדש", "amenity": "school", "building": null, "operator": "", "capacity": "", "addr_city": "", "country": "Palestine", "iso3": "PSE", "source": "HOTOSM/OSM", "latitude": 31.532378, "longitude": 34.600049 }, "geometry": { "type": "Point", "coordinates": [ 34.600048703772593, 31.532377989997855 ] } },
{ "type": "Feature", "properties": { "osm_id": "", "name": "", "amenity": "kindergarten", "building": "yes", "operator": "", "capacity": "", "addr_city": "", "country": "Palestine", "iso3": "PSE", "source": "HOTOSM/OSM", "latitude": 31.53195, "longitude": 34.606732 }, "geometry": { "type": "Point", "coordinates": [ 34.606731539621897, 31.531950287537533 ] } },
{ "type": "Feature", "properties": { "osm_id": "", "name": "", "amenity": "kindergarten", "building": "yes", "operator": "", "capacity": "", "addr_city": "", "country": "Palestine", "iso3": "PSE", "source": "HOTOSM/OSM", "latitude": 31.532248, "longitude": 34.606589 }, "geometry": { "type": "Point", "coordinates": [ 34.606588589483493, 31.532248061352451 ] } },
{ "type": "Feature", "properties": { "osm_id": "", "name": "", "amenity": "kindergarten", "building": "yes", "operator": "", "capacity": "", "addr_city": "", "country": "Palestine", "iso3": "PSE", "source": "HOTOSM/OSM", "latitude": 31.53064, "longitude": 34.608774 }, "geometry": { "type": "Point", "coordinates": [ 34.608773578881639, 31.530640152098815 ] } },
{ "type": "Feature", "properties": { "osm_id": "", "name": "", "amenity": "kindergarten", "building": "yes", "operator": "", "capacity": "", "addr_city": "", "country": "Palestine", "iso3": "PSE", "source": "HOTOSM/OSM", "latitude": 31.530511, "longitude": 34.606999 }, "geometry": { "type": "Point", "coordinates": [ 34.606998916569836, 31.530510805517881 ] } },
{ "type": "Feature", "properties": { "osm_id": "", "name": "", "amenity": "kindergarten", "building": "yes", "operator": "", "capacity": "", "addr_city": "שדרות", "country": "Palestine", "iso3": "PSE", "source": "HOTOSM/OSM", "latitude": 31.52821, "longitude": 34.606471 }, "geometry": { "type": "Point", "coordinates": [ 34.606471263401083, 31.528209538360596 ] } },
{ "type": "Feature", "properties": { "osm_id": "", "name": "", "amenity": "kindergarten", "building": "yes", "operator": "", "capacity": "", "addr_city": "", "country": "Palestine", "iso3": "PSE", "source": "HOTOSM/OSM", "latitude": 31.52866, "longitude": 34.605193 }, "geometry": { "type": "Point", "coordinates": [ 34.605193466585263, 31.528660200489142 ] } },
{ "type": "Feature", "properties": { "osm_id": "", "name": "", "amenity": null, "building": "school", "operator": "", "capacity": "", "addr_city": "", "country": "Palestine", "iso3": "PSE", "source": "HOTOSM/OSM", "latitude": 31.530535, "longitude": 34.604298 }, "geometry": { "type": "Point", "coordinates": [ 34.604297649913747, 31.530535109249303 ] } },
{ "type": "Feature", "properties": { "osm_id": "", "name": "ביה\"ס גיל ע\"ש רבין", "amenity": "school", "building": null, "operator": "", "capacity": "", "addr_city": "", "country": "Palestine", "iso3": "PSE", "source": "HOTOSM/OSM", "latitude": 31.530475, "longitude": 34.604242 }, "geometry": { "type": "Point", "coordinates": [ 34.604241880725532, 31.530475034503475 ] } },
{ "type": "Feature", "properties": { "osm_id": "", "name": "", "amenity": null, "building": "school", "operator": "", "capacity": "", "addr_city": "", "country": "Palestine", "iso3": "PSE", "source": "HOTOSM/OSM", "latitude": 31.530635, "longitude": 34.604698 }, "geometry": { "type": "Point", "coordinates": [ 34.604698442439798, 31.53063473776913 ] } },
{ "type": "Feature", "properties": { "osm_id": "", "name": "", "amenity": null, "building": "school", "operator": "", "capacity": "", "addr_city": "", "country": "Palestine", "iso3": "PSE", "source": "HOTOSM/OSM", "latitude": 31.530218, "longitude": 34.603918 }, "geometry": { "type": "Point", "coordinates": [ 34.603918328812561, 31.530217670868666 ] } },
{ "type": "Feature", "properties": { "osm_id": "", "name": "", "amenity": "kindergarten", "building": "yes", "operator": "", "capacity": "", "addr_city": "", "country": "Palestine", "iso3": "PSE", "source": "HOTOSM/OSM", "latitude": 31.530986, "longitude": 34.603578 }, "geometry": { "type": "Point", "coordinates": [ 34.603578062421356, 31.530985933876352 ] } },
{ "type": "Feature", "properties": { "osm_id": "", "name": "", "amenity": null, "building": "college", "operator": "", "capacity": "", "addr_city": "", "country": "Palestine", "iso3": "PSE", "source": "HOTOSM/OSM", "latitude": 31.530105, "longitude": 34.602524 }, "geometry": { "type": "Point", "coordinates": [ 34.602523718528722, 31.530105168016444 ] } },
{ "type": "Feature", "properties": { "osm_id": "", "name": "", "amenity": null, "building": "college", "operator": "", "capacity": "", "addr_city": "", "country": "Palestine", "iso3": "PSE", "source": "HOTOSM/OSM", "latitude": 31.529703, "longitude": 34.602507 }, "geometry": { "type": "Point", "coordinates": [ 34.602506739367087, 31.529702579527907 ] } },
{ "type": "Feature", "properties": { "osm_id": "", "name": "", "amenity": "kindergarten", "building": "yes", "operator": "", "capacity": "", "addr_city": "", "country": "Palestine", "iso3": "PSE", "source": "HOTOSM/OSM", "latitude": 31.530112, "longitude": 34.603132 }, "geometry": { "type": "Point", "coordinates": [ 34.603132208539314, 31.530112419438478 ] } },
{ "type": "Feature", "properties": { "osm_id": "", "name": "", "amenity": null, "building": "college", "operator": "", "capacity": "", "addr_city": "", "country": "Palestine", "iso3": "PSE", "source": "HOTOSM/OSM", "latitude": 31.529327, "longitude": 34.602342 }, "geometry": { "type": "Point", "coordinates": [ 34.602341646607428, 31.529327006157445 ] } },
{ "type": "Feature", "properties": { "osm_id": "", "name": "", "amenity": null, "building": "school", "operator": "", "capacity": "", "addr_city": "", "country": "Palestine", "iso3": "PSE", "source": "HOTOSM/OSM", "latitude": 31.528505, "longitude": 34.602324 }, "geometry": { "type": "Point", "coordinates": [ 34.602323833177856, 31.528505083075839 ] } },
{ "type": "Feature", "properties": { "osm_id": "", "name": "", "amenity": "school", "building": null, "operator": "", "capacity": "", "addr_city": "", "country": "Palestine", "iso3": "PSE", "source": "HOTOSM/OSM", "latitude": 31.528227, "longitude": 34.602111 }, "geometry": { "type": "Point", "coordinates": [ 34.602111263181492, 31.52822717396112 ] } },
{ "type": "Feature", "properties": { "osm_id": "", "name": "", "amenity": "kindergarten", "building": "yes", "operator": "", "capacity": "", "addr_city": "", "country": "Palestine", "iso3": "PSE", "source": "HOTOSM/OSM", "latitude": 31.528653, "longitude": 34.603533 }, "geometry": { "type": "Point", "coordinates": [ 34.60353335, 31.52865295 ] } },
{ "type": "Feature", "properties": { "osm_id": "", "name": "", "amenity": "kindergarten", "building": "yes", "operator": "", "capacity": "", "addr_city": "", "country": "Palestine", "iso3": "PSE", "source": "HOTOSM/OSM", "latitude": 31.528977, "longitude": 34.603653 }, "geometry": { "type": "Point", "coordinates": [ 34.60365265724915, 31.528977433610159 ] } },
{ "type": "Feature", "properties": { "osm_id": "", "name": "", "amenity": "kindergarten", "building": "yes", "operator": "", "capacity": "", "addr_city": "", "country": "Palestine", "iso3": "PSE", "source": "HOTOSM/OSM", "latitude": 31.527122, "longitude": 34.604797 }, "geometry": { "type": "Point", "coordinates": [ 34.604796969346289, 31.527121753658012 ] } },
{ "type": "Feature", "properties": { "osm_id": "", "name": "גן שיטה", "amenity": "kindergarten", "building": null, "operator": "", "capacity": "", "addr_city": "", "country": "Palestine", "iso3": "PSE", "source": "HOTOSM/OSM", "latitude": 31.523306, "longitude": 34.603171 }, "geometry": { "type": "Point", "coordinates": [ 34.603171302743235, 31.523306433923679 ] } },
{ "type": "Feature", "properties": { "osm_id": "", "name": "", "amenity": "school", "building": null, "operator": "", "capacity": "", "addr_city": "", "country": "Palestine", "iso3": "PSE", "source": "HOTOSM/OSM", "latitude": 31.330231, "longitude": 34.875514 }, "geometry": { "type": "Point", "coordinates": [ 34.875513592221488, 31.330230940159748 ] } },
{ "type": "Feature", "properties": { "osm_id": "", "name": "", "amenity": "kindergarten", "building": null, "operator": "", "capacity": "", "addr_city": "", "country": "Palestine", "iso3": "PSE", "source": "HOTOSM/OSM", "latitude": 31.334709, "longitude": 34.897248 }, "geometry": { "type": "Point", "coordinates": [ 34.897248235056921, 31.334709033631711 ] } },
{ "type": "Feature", "properties": { "osm_id": "", "name": "", "amenity": "kindergarten", "building": null, "operator": "", "capacity": "", "addr_city": "", "country": "Palestine", "iso3": "PSE", "source": "HOTOSM/OSM", "latitude": 31.33055, "longitude": 34.891152 }, "geometry": { "type": "Point", "coordinates": [ 34.891152466698109, 31.330549707361357 ] } },
{ "type": "Feature", "properties": { "osm_id": "", "name": "", "amenity": "kindergarten", "building": null, "operator": "", "capacity": "", "addr_city": "", "country": "Palestine", "iso3": "PSE", "source": "HOTOSM/OSM", "latitude": 31.330689, "longitude": 34.896354 }, "geometry": { "type": "Point", "coordinates": [ 34.896354093012349, 31.330689307500919 ] } },
{ "type": "Feature", "properties": { "osm_id": "", "name": "", "amenity": "school", "building": null, "operator": "", "capacity": "", "addr_city": "", "country": "Palestine", "iso3": "PSE", "source": "HOTOSM/OSM", "latitude": 31.330296, "longitude": 34.897993 }, "geometry": { "type": "Point", "coordinates": [ 34.897992966583388, 31.330296490750868 ] } },
{ "type": "Feature", "properties": { "osm_id": "", "name": "", "amenity": "kindergarten", "building": null, "operator": "", "capacity": "", "addr_city": "", "country": "Palestine", "iso3": "PSE", "source": "HOTOSM/OSM", "latitude": 31.333957, "longitude": 34.898925 },