name,amenity,country,iso3,source,latitude,longitude,building,addr_city,operator
BAYARBOUGOU,school,Burkina Faso,BFA,HOTOSM/OSM,10.971733,-5.492083,,Bayarabougou,community
FOKOGNOUMA DIASSA,school,Burkina Faso,BFA,HOTOSM/OSM,11.26482,-5.27005,,Fokognoumadiassa,public
Ecole de Dorokouma,school,Burkina Faso,BFA,HOTOSM/OSM,12.53041,-4.412035,,Dorokouma,community
KONA ECOM,school,Burkina Faso,BFA,HOTOSM/OSM,12.05015,-4.746717,,Kona,public
institut de formation colbert,school,Burkina Faso,BFA,HOTOSM/OSM,12.31728,-1.525117,yes,ouagadougou,
"École maternelle primaire ""THEA""",school,Burkina Faso,BFA,HOTOSM/OSM,12.329777,-1.525389,yes,Ouagadougou,
Collège Privé RAMODG-WENDE,school,Burkina Faso,BFA,HOTOSM/OSM,12.329418,-1.52494,yes,Ouagadougou,
Institut Supérieur Privé de Management,university,Burkina Faso,BFA,HOTOSM/OSM,12.357004,-1.492439,yes,,private
École Kouna-Toumou,school,Burkina Faso,BFA,HOTOSM/OSM,13.474588,-3.976277,,Kouna Toumou,community
WARA MAFOUNE,school,Burkina Faso,BFA,HOTOSM/OSM,12.725133,-4.31354,,Wara,community
KOYA,school,Burkina Faso,BFA,HOTOSM/OSM,13.042103,-4.303521,,Koya,community
École Sinikuy,school,Burkina Faso,BFA,HOTOSM/OSM,13.199505,-4.266254,,Sinikuy Tierakuy,community
KOMIAN,school,Burkina Faso,BFA,HOTOSM/OSM,13.078446,-4.321271,,Komian,community
École primaire de Viré-Songdin,school,Burkina Faso,BFA,HOTOSM/OSM,13.41573,-2.554702,school,,
Juvenat filles st camille,school,Burkina Faso,BFA,HOTOSM/OSM,12.376638,-1.474951,,,community
Université Aube Nouvelle,university,Burkina Faso,BFA,HOTOSM/OSM,12.36053,-1.498142,,,private
Ecole Mennè A,school,Burkina Faso,BFA,HOTOSM/OSM,11.364437,0.114042,,,public
CEEP Le Petit Monde,kindergarten,Burkina Faso,BFA,HOTOSM/OSM,12.359614,-1.50002,,,private
Le Petit Monde,school,Burkina Faso,BFA,HOTOSM/OSM,12.358894,-1.500527,,,private
Lycee de la jeunesse,college,Burkina Faso,BFA,HOTOSM/OSM,12.382832,-1.476206,,,private
Lycée Novus,college,Burkina Faso,BFA,HOTOSM/OSM,12.367849,-1.47021,,,private
Detachement Université ouaga II,university,Burkina Faso,BFA,HOTOSM/OSM,12.363072,-1.480181,,,public
Groupe Scolaire Sainte-Collete - annexe professionnelle,school,Burkina Faso,BFA,HOTOSM/OSM,12.368406,-1.463046,,,private
Cours privé Marie Curie,school,Burkina Faso,BFA,HOTOSM/OSM,12.369727,-1.46258,,,private
ISIG INTERNATIONAL Annexe,university,Burkina Faso,BFA,HOTOSM/OSM,12.369224,-1.497944,yes,,
Ephata International,college,Burkina Faso,BFA,HOTOSM/OSM,12.383686,-1.477285,,,private
Lycée technique Jean-paul II,school,Burkina Faso,BFA,HOTOSM/OSM,12.362105,-1.482988,yes,,
Garderie centre d'acceuil,kindergarten,Burkina Faso,BFA,HOTOSM/OSM,12.360979,-1.482687,,,private
institut Panafricaine de Formation En Aeronautique,college,Burkina Faso,BFA,HOTOSM/OSM,12.363317,-1.480002,,,private
Centre d'Apprentissage et de Perfectionnement En Anglais,college,Burkina Faso,BFA,HOTOSM/OSM,12.365032,-1.478848,,,public
Lycee National de Bobo,school,Burkina Faso,BFA,HOTOSM/OSM,11.180019,-4.339292,,,public
Lycée privé La Solution,school,Burkina Faso,BFA,HOTOSM/OSM,11.101949,-2.103041,,,private
Lycée Municipal de Léo,school,Burkina Faso,BFA,HOTOSM/OSM,11.106255,-2.098692,,,public
Lycée Privé Saint Jacques de Léo,school,Burkina Faso,BFA,HOTOSM/OSM,11.111001,-2.086706,,,private
CEG de Viré-Songdin,school,Burkina Faso,BFA,HOTOSM/OSM,13.406796,-2.569723,,,private
Collège de l'Avenir,college,Burkina Faso,BFA,HOTOSM/OSM,11.169959,-4.276196,,,private
Lycée Wendpuire de Saaba,school,Burkina Faso,BFA,HOTOSM/OSM,12.381279,-1.422587,,,public
Lycée Promotion,college,Burkina Faso,BFA,HOTOSM/OSM,11.168426,-4.270893,yes,,
Ecole primaire,school,Burkina Faso,BFA,HOTOSM/OSM,11.750389,1.78865,,,public
École primaire Accart-Ville Sud,school,Burkina Faso,BFA,HOTOSM/OSM,11.182342,-4.311492,,,public
Institut National des Sciences de la Santé,university,Burkina Faso,BFA,HOTOSM/OSM,11.182066,-4.362218,yes,,
Alwata Diawara,school,Burkina Faso,BFA,HOTOSM/OSM,13.068853,-3.070669,,,public
EcolePrimaire Publique de Dimolo,school,Burkina Faso,BFA,HOTOSM/OSM,10.540874,-3.404428,,,public
Ecole primaire de Nango Yarcé,school,Burkina Faso,BFA,HOTOSM/OSM,13.468587,-2.586827,school,,
Ecole primaire de Guessoum,school,Burkina Faso,BFA,HOTOSM/OSM,13.451003,-2.665655,,,public
Lycée Mixe d'accard-Ville,school,Burkina Faso,BFA,HOTOSM/OSM,11.187387,-4.315391,yes,,
LYCEE MIXE D'ACCARD-VILLE,school,Burkina Faso,BFA,HOTOSM/OSM,11.18765,-4.315478,,,public
Ecole de Kédié,,Burkina Faso,BFA,HOTOSM/OSM,11.484512,-2.625508,school,Kédié,
LYCEE PRIVEE CHEICK ANTA DIOP,school,Burkina Faso,BFA,HOTOSM/OSM,11.188922,-4.315221,,,private
Musso Dankan,school,Burkina Faso,BFA,HOTOSM/OSM,11.152426,-3.059485,,,private
Lycee Privee Islamique de Bobo,school,Burkina Faso,BFA,HOTOSM/OSM,11.174242,-4.304578,,,private
Complexe Sclolaire Privé Yahve Schama,school,Burkina Faso,BFA,HOTOSM/OSM,11.177933,-4.356263,,,private
Lycée Mixe d'accard-Ville,school,Burkina Faso,BFA,HOTOSM/OSM,11.186749,-4.315545,yes,,
"Lycée Privé ""ELKANA""",college,Burkina Faso,BFA,HOTOSM/OSM,11.177488,-4.297137,,,private
Ecole Primaire,school,Burkina Faso,BFA,HOTOSM/OSM,10.801143,-4.860521,,Kolokolo,
Institut des Sciences Techniques et de Management,college,Burkina Faso,BFA,HOTOSM/OSM,12.37643,-1.493462,,,private
Institut International d'Ingénierie de l'Eau et de l'Environnement,college,Burkina Faso,BFA,HOTOSM/OSM,12.379233,-1.503213,,,private
Primary School Catholic Saint Paul,school,Burkina Faso,BFA,HOTOSM/OSM,13.067791,-1.081814,,Kaya,
Charis,kindergarten,Burkina Faso,BFA,HOTOSM/OSM,12.373815,-1.488201,,,private
École primaire publique A - Batiment 1,school,Burkina Faso,BFA,HOTOSM/OSM,12.191894,-2.601504,yes,,
juvenat garçon st camille,school,Burkina Faso,BFA,HOTOSM/OSM,12.375277,-1.490224,,,community
École primaire publique A - Batiment 2,school,Burkina Faso,BFA,HOTOSM/OSM,12.191552,-2.601448,yes,,
Université Saint Thomas d’Aquin (USTA),university,Burkina Faso,BFA,HOTOSM/OSM,12.384025,-1.418425,,Ouagadougou,
Ecole Nationale Des Postes (ENAPOSTE),school,Burkina Faso,BFA,HOTOSM/OSM,12.370328,-1.51426,yes,,
Joyeux bambims,school,Burkina Faso,BFA,HOTOSM/OSM,12.37394,-1.533896,,,private
complexe cours du soir namalgué,school,Burkina Faso,BFA,HOTOSM/OSM,12.337137,-1.533352,,,private
Collège des Jeunes Filles de Loumbila,school,Burkina Faso,BFA,HOTOSM/OSM,12.489503,-1.403587,,,community
Steve Biko,school,Burkina Faso,BFA,HOTOSM/OSM,12.337424,-1.533495,,,public
Jokkolabs Ouagadougou,college,Burkina Faso,BFA,HOTOSM/OSM,12.353762,-1.522504,,,private
Ecole Primaire Publique de Gonfrèra,school,Burkina Faso,BFA,HOTOSM/OSM,10.517362,-3.299142,,,public
Ecole Primaire Publique de Djégonao,school,Burkina Faso,BFA,HOTOSM/OSM,10.535307,-3.365899,,,public
Jardin d'enfants,kindergarten,Burkina Faso,BFA,HOTOSM/OSM,11.076066,-5.299762,school,,
École primaire Tarwende,school,Burkina Faso,BFA,HOTOSM/OSM,12.336617,-1.540146,,,private
Lagem Taaba A et B,school,Burkina Faso,BFA,HOTOSM/OSM,12.318511,-1.519722,,,public
Ecole La Savane,school,Burkina Faso,BFA,HOTOSM/OSM,12.331121,-1.546293,,,community
Lycée privé Millenium plus,school,Burkina Faso,BFA,HOTOSM/OSM,12.330523,-1.549028,,,private
Préscolaire Communautaire Kam Laada (ICCV),kindergarten,Burkina Faso,BFA,HOTOSM/OSM,12.33523,-1.534858,,,private
Institut d'Application et de Vulgarisation en Sciences,college,Burkina Faso,BFA,HOTOSM/OSM,12.334765,-1.538247,,,private
Complexe scolaire Saint-Laurent Remaria,school,Burkina Faso,BFA,HOTOSM/OSM,12.339547,-1.539258,,,private
Lycée Privé Wend-Manegret,school,Burkina Faso,BFA,HOTOSM/OSM,12.334202,-1.495381,,,private
Instutit Africain de Management (IAM),college,Burkina Faso,BFA,HOTOSM/OSM,12.32703,-1.502006,yes,,
Groupe ESCO IGES,college,Burkina Faso,BFA,HOTOSM/OSM,12.346184,-1.550308,,,private
lycée Nouvel Saint Florent,school,Burkina Faso,BFA,HOTOSM/OSM,12.394063,-1.581673,,,private
Groupe scolaire le lauréat,school,Burkina Faso,BFA,HOTOSM/OSM,12.383033,-1.55154,,,private
Complexe scolaire l'Avenir,school,Burkina Faso,BFA,HOTOSM/OSM,12.307142,-1.616785,,,private
"Lycée Privé ""La Compétence""",school,Burkina Faso,BFA,HOTOSM/OSM,12.377896,-1.536084,,,private
Wend Penga,school,Burkina Faso,BFA,HOTOSM/OSM,12.252222,-2.388801,,,private
Ecole Normale Supérieure de Koudougou,college,Burkina Faso,BFA,HOTOSM/OSM,12.242825,-2.396281,yes,,
Ecole C,school,Burkina Faso,BFA,HOTOSM/OSM,12.487852,1.522384,public,,
Collège Savoir Plus annexe 1200 logements,school,Burkina Faso,BFA,HOTOSM/OSM,12.378689,-1.543268,,,private
Burkina Institute of Technology,college,Burkina Faso,BFA,HOTOSM/OSM,12.218197,-2.378456,yes,,
Centre d'éveil et d'éducation préscolaire privé,school,Burkina Faso,BFA,HOTOSM/OSM,12.3779,-1.543028,,,private
Ecolre primaire Ste Thérèse de l'enfant Jesus,school,Burkina Faso,BFA,HOTOSM/OSM,12.383961,-1.544934,,,private
Ecole maternelle primaire EL-OLAM,school,Burkina Faso,BFA,HOTOSM/OSM,12.3748,-1.540566,,,private
"Les Tout-Petits ""B""",school,Burkina Faso,BFA,HOTOSM/OSM,12.385237,-1.539049,,,private
Ecole fraco arabe Sadakatou Al Islamiya,school,Burkina Faso,BFA,HOTOSM/OSM,12.384012,-1.534363,,,private
Boblawendé,school,Burkina Faso,BFA,HOTOSM/OSM,12.373696,-1.551274,,,private
Lycée privé Noureine,school,Burkina Faso,BFA,HOTOSM/OSM,12.371254,-1.557902,,,private
Collège de l'avenir Saint Michel de Ouaga,school,Burkina Faso,BFA,HOTOSM/OSM,12.373662,-1.544975,,,private
Groupe Scolaire la Roseraie,school,Burkina Faso,BFA,HOTOSM/OSM,12.348394,-1.531298,,,private
Ecole primaire de Todiam,school,Burkina Faso,BFA,HOTOSM/OSM,13.690069,-2.143808,school,,
Ecole Supérieure des Techniques Avancées,college,Burkina Faso,BFA,HOTOSM/OSM,12.394456,-1.502312,,,private
Institut Burkinabè des Arts et Métiers,university,Burkina Faso,BFA,HOTOSM/OSM,12.40778,-1.497337,,,public
Lycée privé Les élites,school,Burkina Faso,BFA,HOTOSM/OSM,11.134192,0.024113,,,private
Lycée de Cinkansé,school,Burkina Faso,BFA,HOTOSM/OSM,11.13335,0.019387,,,public
École Mixte St-Joseph,school,Burkina Faso,BFA,HOTOSM/OSM,12.348456,-1.498081,yes,,
Ecole Dassasgo B,school,Burkina Faso,BFA,HOTOSM/OSM,12.389365,-1.468436,,,public
KLD institut/ouaga ET Lycée technique Djedri,college,Burkina Faso,BFA,HOTOSM/OSM,12.349006,-1.489637,,,private
Lycée de Tintilou,school,Burkina Faso,BFA,HOTOSM/OSM,12.20022,-1.814161,,,public
"Institut panafricain d'étude et de recherche sur les médias, l'information et la communication",university,Burkina Faso,BFA,HOTOSM/OSM,12.381871,-1.467321,,,public
ESMAT Ecole Superieur De management Et Technologie Appliquées,college,Burkina Faso,BFA,HOTOSM/OSM,12.385332,-1.468086,,,private
CEG de Kaya-Tiébélé,school,Burkina Faso,BFA,HOTOSM/OSM,11.065689,-1.022654,,,public
Ecole primaire de Kaya-Kantiolo,school,Burkina Faso,BFA,HOTOSM/OSM,11.058347,-1.018999,,,public
Center Universitaire des Systèmes d'Information Géographiques et de Télédétection Adjaratou,college,Burkina Faso,BFA,HOTOSM/OSM,12.390009,-1.482741,,,private
Lycée technique apliquée,school,Burkina Faso,BFA,HOTOSM/OSM,12.359889,-1.550888,,,private
Saint Aloys,school,Burkina Faso,BFA,HOTOSM/OSM,12.36119,-1.546225,,,private
Compexe Educatif Zoodo,school,Burkina Faso,BFA,HOTOSM/OSM,13.55144,-2.403509,,,association
Ecole Supérieure de Commerce et d’Informatique de Gestion,university,Burkina Faso,BFA,HOTOSM/OSM,12.362001,-1.543933,,,private
Ecole des Jeunes Aveugle de l'ABPAM,school,Burkina Faso,BFA,HOTOSM/OSM,12.356771,-1.549986,,,ngo
Préscolaire Inclusif de L'Ecole des Jeunes Aveugles de l'ABPAM,kindergarten,Burkina Faso,BFA,HOTOSM/OSM,12.357154,-1.550085,,,ngo
Les Flamboyants,school,Burkina Faso,BFA,HOTOSM/OSM,12.354103,-1.540166,,,private
CELEP BURKINA,school,Burkina Faso,BFA,HOTOSM/OSM,12.360929,-1.545836,,,private
Communal de Diebougou,school,Burkina Faso,BFA,HOTOSM/OSM,10.971201,-3.255285,,,public
Ecole primaire de Touri,school,Burkina Faso,BFA,HOTOSM/OSM,13.395253,-2.642919,yes,,
École Privée Évangélique,school,Burkina Faso,BFA,HOTOSM/OSM,12.201251,-1.80141,,,private
Lycée Wéli,school,Burkina Faso,BFA,HOTOSM/OSM,12.193623,-1.80468,,,private
Institut des Sciences et Techniques de l’Information et de la Communication,college,Burkina Faso,BFA,HOTOSM/OSM,12.369767,-1.514197,,,public
École de Foungou,,Burkina Faso,BFA,HOTOSM/OSM,11.432396,-0.770857,school,Gon Boussougou,
École de Foungou,,Burkina Faso,BFA,HOTOSM/OSM,11.4324,-0.771458,school,Gon Boussougou,
Ecole privée Saint Aloys,school,Burkina Faso,BFA,HOTOSM/OSM,12.362361,-1.55382,,,private
Collège Privé Marguerite Yourcenar,school,Burkina Faso,BFA,HOTOSM/OSM,12.360985,-1.558308,,,private
Les trésors plus,school,Burkina Faso,BFA,HOTOSM/OSM,12.362614,-1.558375,,,private
Ecole privée Piidi les fleurs,school,Burkina Faso,BFA,HOTOSM/OSM,12.363443,-1.556439,,,private
Collège Marie Reine,school,Burkina Faso,BFA,HOTOSM/OSM,11.790164,-0.368715,,,private
Cité A,school,Burkina Faso,BFA,HOTOSM/OSM,11.79688,-0.378686,,,public
Université Nazi Boni,university,Burkina Faso,BFA,HOTOSM/OSM,11.209439,-4.417484,,,public
Ecole Nasser Hamed,school,Burkina Faso,BFA,HOTOSM/OSM,12.411523,-1.634379,yes,,
Ecole Nasser Hamed,school,Burkina Faso,BFA,HOTOSM/OSM,12.411884,-1.634637,yes,,
École de Foungou,,Burkina Faso,BFA,HOTOSM/OSM,11.432531,-0.771105,school,Gon Boussougou,
Lycée Provincial du Zondoma(LPZ),school,Burkina Faso,BFA,HOTOSM/OSM,13.206604,-2.346002,,,public
Ecole franco-arabe,school,Burkina Faso,BFA,HOTOSM/OSM,12.377054,-0.605993,yes,,
Schule B,school,Burkina Faso,BFA,HOTOSM/OSM,12.023914,-3.615824,house,,
Salles de classe (LDB),college,Burkina Faso,BFA,HOTOSM/OSM,11.753015,-3.317491,yes,,
Salles de classe (LDB),college,Burkina Faso,BFA,HOTOSM/OSM,11.752641,-3.317432,yes,,
CEB I,school,Burkina Faso,BFA,HOTOSM/OSM,12.251905,-0.431245,yes,,
Administration du Lycée départemental de Bagassi,college,Burkina Faso,BFA,HOTOSM/OSM,11.752087,-3.317188,yes,,
Laboratoire,school,Burkina Faso,BFA,HOTOSM/OSM,11.765764,-2.932168,yes,,
Salles de classe (LDB),college,Burkina Faso,BFA,HOTOSM/OSM,11.752944,-3.317027,yes,,
Salles de classe (LDB),college,Burkina Faso,BFA,HOTOSM/OSM,11.753576,-3.316458,yes,,
Salles de classe (LDB),college,Burkina Faso,BFA,HOTOSM/OSM,11.753641,-3.316798,yes,,
La Bénédiction,school,Burkina Faso,BFA,HOTOSM/OSM,12.310648,-1.608411,,,private
Complexe scolaire Saint Ambroise,school,Burkina Faso,BFA,HOTOSM/OSM,12.304178,-1.615773,,,private
Business Intelligence Institute,college,Burkina Faso,BFA,HOTOSM/OSM,12.341927,-1.552731,,,private
Ecole privé elina,school,Burkina Faso,BFA,HOTOSM/OSM,12.355266,-1.553262,,,private
Lycée Professionnel de Bobo,school,Burkina Faso,BFA,HOTOSM/OSM,11.209438,-4.320114,,,public
Institut Supérieur de Développement d’Entreprises,college,Burkina Faso,BFA,HOTOSM/OSM,12.32943,-1.615641,,,private
Ecole CEFISE BENAJA DE BENDOGO,school,Burkina Faso,BFA,HOTOSM/OSM,12.388642,-1.454412,,,
École Tabtinga,school,Burkina Faso,BFA,HOTOSM/OSM,12.380264,-1.461488,,,
Groupe Scolaire Saint Viateur,school,Burkina Faso,BFA,HOTOSM/OSM,12.377835,-1.467295,,,
École Dassasgo C D,school,Burkina Faso,BFA,HOTOSM/OSM,12.373611,-1.476664,,,
ESTA Annexe,university,Burkina Faso,BFA,HOTOSM/OSM,12.370408,-1.475271,,,
École Wemtenga,school,Burkina Faso,BFA,HOTOSM/OSM,12.373356,-1.484527,,,
EPFWP,school,Burkina Faso,BFA,HOTOSM/OSM,12.381187,-1.479155,,,
Juvenat,school,Burkina Faso,BFA,HOTOSM/OSM,12.377409,-1.475099,,,
École Dassasgo A E F,school,Burkina Faso,BFA,HOTOSM/OSM,12.385423,-1.474666,,,
Lycée de la jeunesse,school,Burkina Faso,BFA,HOTOSM/OSM,12.382428,-1.476388,,,
ESSUPJ,university,Burkina Faso,BFA,HOTOSM/OSM,12.382979,-1.477018,,,
EGT Etablissement Gabriel Taborin de Saaba,school,Burkina Faso,BFA,HOTOSM/OSM,12.385506,-1.438364,,,
École Kossodo A D,school,Burkina Faso,BFA,HOTOSM/OSM,12.416795,-1.468462,,,
Université Privée de Ouagadougou,university,Burkina Faso,BFA,HOTOSM/OSM,12.412043,-1.46281,,,
مدرسة الأخلاق,school,Burkina Faso,BFA,HOTOSM/OSM,12.385698,-1.482416,,,
École Nabonswendé,school,Burkina Faso,BFA,HOTOSM/OSM,12.389695,-1.479816,,,
ENAREF,college,Burkina Faso,BFA,HOTOSM/OSM,12.391794,-1.479552,,,
Fondation Jean Paul II IPD AOS,school,Burkina Faso,BFA,HOTOSM/OSM,12.392227,-1.467418,,,
École primaire évangélique,school,Burkina Faso,BFA,HOTOSM/OSM,12.38447,-1.463385,,,
Lycée technique Amilcar cabral,school,Burkina Faso,BFA,HOTOSM/OSM,12.381924,-1.461985,,,
Noviciat,school,Burkina Faso,BFA,HOTOSM/OSM,12.384018,-1.460867,,,
Centre de Formation Biblique,school,Burkina Faso,BFA,HOTOSM/OSM,12.384412,-1.459244,,,
"Centre Islamique ""El Nour""",school,Burkina Faso,BFA,HOTOSM/OSM,12.382212,-1.460495,,,
Lyce prive la releve sougri nooma,school,Burkina Faso,BFA,HOTOSM/OSM,12.414524,-1.463171,,,
Ecole primaire,school,Burkina Faso,BFA,HOTOSM/OSM,12.382602,-1.440737,,,
Ecole,school,Burkina Faso,BFA,HOTOSM/OSM,12.382032,-1.443419,,,
Ecole,school,Burkina Faso,BFA,HOTOSM/OSM,12.384701,-1.442064,,,
Maternelle Gabriel Taborin,kindergarten,Burkina Faso,BFA,HOTOSM/OSM,12.386544,-1.437541,,,
Ecole Trame d´accueil,school,Burkina Faso,BFA,HOTOSM/OSM,12.383098,-1.455285,,,
Ecole primaire,school,Burkina Faso,BFA,HOTOSM/OSM,12.372696,-1.436906,,,
Comlexe scolaire Guinkouma,school,Burkina Faso,BFA,HOTOSM/OSM,12.370213,-1.437026,,,
Ecole primaire,school,Burkina Faso,BFA,HOTOSM/OSM,12.370283,-1.439297,,,
Groupe scolaire sainte Colette,school,Burkina Faso,BFA,HOTOSM/OSM,12.374151,-1.458839,,,
Ecole primaire,school,Burkina Faso,BFA,HOTOSM/OSM,12.37749,-1.439492,,,
Ecole,school,Burkina Faso,BFA,HOTOSM/OSM,12.402951,-1.439005,,,
Ecole,school,Burkina Faso,BFA,HOTOSM/OSM,12.401096,-1.428483,,,
Ecole primaire,school,Burkina Faso,BFA,HOTOSM/OSM,12.397642,-1.435261,,,
Ecole primaire,school,Burkina Faso,BFA,HOTOSM/OSM,12.393857,-1.424588,,,
ecole Elysa,school,Burkina Faso,BFA,HOTOSM/OSM,12.389003,-1.457026,,,
Ecole primaire,school,Burkina Faso,BFA,HOTOSM/OSM,12.399999,-1.422717,,,
Ecole primaire,school,Burkina Faso,BFA,HOTOSM/OSM,12.403878,-1.426043,,,
Ecole primaire,school,Burkina Faso,BFA,HOTOSM/OSM,12.407192,-1.426804,,,
Complexe scolaire,school,Burkina Faso,BFA,HOTOSM/OSM,12.405646,-1.430414,,,
Complexe scolaire,school,Burkina Faso,BFA,HOTOSM/OSM,12.4077,-1.433139,,,
Ecole Famille,school,Burkina Faso,BFA,HOTOSM/OSM,12.391205,-1.454374,,,
Lycee Privé Oudisongdé,school,Burkina Faso,BFA,HOTOSM/OSM,12.400365,-1.462369,,,
Ecole Anny Simone,school,Burkina Faso,BFA,HOTOSM/OSM,12.401031,-1.462534,,,
Crèche maternelle bilingue Blessing,school,Burkina Faso,BFA,HOTOSM/OSM,12.402991,-1.467604,,,
École Wayalgin D,school,Burkina Faso,BFA,HOTOSM/OSM,12.397531,-1.46093,,,
Lycée William Ponty,school,Burkina Faso,BFA,HOTOSM/OSM,12.395858,-1.461923,,,
Lycée Newton Descartes,school,Burkina Faso,BFA,HOTOSM/OSM,12.393792,-1.469352,,,
Ecole Wayalguin A B,school,Burkina Faso,BFA,HOTOSM/OSM,12.393913,-1.470195,,,
Grand Séminaire Saint jean-baptiste,university,Burkina Faso,BFA,HOTOSM/OSM,12.395456,-1.476524,,,
ecole Wayalgin C,school,Burkina Faso,BFA,HOTOSM/OSM,12.39886,-1.48005,,,
Groupe scolaire la source,school,Burkina Faso,BFA,HOTOSM/OSM,12.401833,-1.476777,,,
Ecole,school,Burkina Faso,BFA,HOTOSM/OSM,12.415991,-1.440789,,,
Ecole,school,Burkina Faso,BFA,HOTOSM/OSM,12.415108,-1.439233,,,
Ecole,school,Burkina Faso,BFA,HOTOSM/OSM,12.410272,-1.436039,,,
Ecole primaire,school,Burkina Faso,BFA,HOTOSM/OSM,12.397579,-1.436444,,,
Ecole primaire,school,Burkina Faso,BFA,HOTOSM/OSM,12.398445,-1.43626,,,
Complexe scolaire William Ponti,school,Burkina Faso,BFA,HOTOSM/OSM,12.401976,-1.436867,,,
Ecole primaire,school,Burkina Faso,BFA,HOTOSM/OSM,12.344041,-1.432276,,,
Ecole primaire,school,Burkina Faso,BFA,HOTOSM/OSM,12.34637,-1.431999,,,
Ecole primaire,school,Burkina Faso,BFA,HOTOSM/OSM,12.342479,-1.426734,,,
Ecole primaire,school,Burkina Faso,BFA,HOTOSM/OSM,12.341797,-1.425695,,,
Ecole primaire,school,Burkina Faso,BFA,HOTOSM/OSM,12.357242,-1.423701,,,
Ecole primaire,school,Burkina Faso,BFA,HOTOSM/OSM,12.356155,-1.432412,,,
Ecole primaire,school,Burkina Faso,BFA,HOTOSM/OSM,12.356514,-1.435148,,,
Ecole primaire,school,Burkina Faso,BFA,HOTOSM/OSM,12.354003,-1.432152,,,
Ecole primaire,school,Burkina Faso,BFA,HOTOSM/OSM,12.350285,-1.431617,,,
Ecole primaire,school,Burkina Faso,BFA,HOTOSM/OSM,12.346583,-1.42894,,,
Ecole,school,Burkina Faso,BFA,HOTOSM/OSM,12.34824,-1.434365,,,
Ecole,school,Burkina Faso,BFA,HOTOSM/OSM,12.348349,-1.43935,,,
Ecole,school,Burkina Faso,BFA,HOTOSM/OSM,12.349883,-1.436773,,,
Ecole primaire,school,Burkina Faso,BFA,HOTOSM/OSM,12.351349,-1.436598,,,
Les Écoles Privées Sainte Philomène,school,Burkina Faso,BFA,HOTOSM/OSM,12.424005,-1.598277,,,
Lycée Privé TOUNDA-SIDA,college,Burkina Faso,BFA,HOTOSM/OSM,12.425443,-1.592632,,,
OSMANLI SIDDIKLAR,school,Burkina Faso,BFA,HOTOSM/OSM,12.427205,-1.594542,,,
WEND SONGDA,school,Burkina Faso,BFA,HOTOSM/OSM,12.427542,-1.591086,,,
École Primaire Privée Teel-Taaba,school,Burkina Faso,BFA,HOTOSM/OSM,12.426599,-1.58711,,,
Groupe Scolaire E.D.I.F,school,Burkina Faso,BFA,HOTOSM/OSM,12.420245,-1.591561,,,
Ecole primaire,school,Burkina Faso,BFA,HOTOSM/OSM,12.342152,-1.435469,,,
Groupe Scolaire la Relève Vaillante,school,Burkina Faso,BFA,HOTOSM/OSM,12.423118,-1.600397,,,
Ecole primaire,school,Burkina Faso,BFA,HOTOSM/OSM,12.3437,-1.440558,,,
Ecole primaire,school,Burkina Faso,BFA,HOTOSM/OSM,12.344299,-1.439061,,,
Ecole primaire,school,Burkina Faso,BFA,HOTOSM/OSM,12.34291,-1.436756,,,
Ecole primaire,school,Burkina Faso,BFA,HOTOSM/OSM,12.340366,-1.442086,,,
Ecole primaire,school,Burkina Faso,BFA,HOTOSM/OSM,12.334632,-1.426702,,,
Ecole primaire,school,Burkina Faso,BFA,HOTOSM/OSM,12.339519,-1.426822,,,
Ecole primaire,school,Burkina Faso,BFA,HOTOSM/OSM,12.335777,-1.43084,,,
Ecole primaire,school,Burkina Faso,BFA,HOTOSM/OSM,12.33862,-1.432516,,,
Lycée Technique Abbé Pierre,school,Burkina Faso,BFA,HOTOSM/OSM,12.421294,-1.592076,,,
Ecole,school,Burkina Faso,BFA,HOTOSM/OSM,12.367738,-1.42949,,,
Ecole primaire,school,Burkina Faso,BFA,HOTOSM/OSM,12.361372,-1.434846,,,
Ecole primaire,school,Burkina Faso,BFA,HOTOSM/OSM,12.359754,-1.430989,,,
Ecole primaire,school,Burkina Faso,BFA,HOTOSM/OSM,12.363369,-1.422327,,,
Ecole,school,Burkina Faso,BFA,HOTOSM/OSM,12.375395,-1.420201,,,
Ecole primaire,school,Burkina Faso,BFA,HOTOSM/OSM,12.351773,-1.440593,,,
Ecole,school,Burkina Faso,BFA,HOTOSM/OSM,12.375682,-1.432314,,,
Ecole,school,Burkina Faso,BFA,HOTOSM/OSM,12.378576,-1.429127,,,
Lycée Wend-Puiré de Saaba,school,Burkina Faso,BFA,HOTOSM/OSM,12.381412,-1.422858,,,
Ecole maternelle,kindergarten,Burkina Faso,BFA,HOTOSM/OSM,12.390557,-1.433688,,,
Ecole Bethsaleel,school,Burkina Faso,BFA,HOTOSM/OSM,12.390534,-1.433147,,,
lycée privé Elisa,school,Burkina Faso,BFA,HOTOSM/OSM,12.3854,-1.428712,,,
Ecole,school,Burkina Faso,BFA,HOTOSM/OSM,12.383087,-1.432392,,,
Ecole,school,Burkina Faso,BFA,HOTOSM/OSM,12.371503,-1.428743,,,
Ecole primaire,school,Burkina Faso,BFA,HOTOSM/OSM,12.347306,-1.442277,,,
Ecole primaire,school,Burkina Faso,BFA,HOTOSM/OSM,12.356528,-1.441669,,,
Ecole primaire,school,Burkina Faso,BFA,HOTOSM/OSM,12.353891,-1.443763,,,
Ecole primaire,school,Burkina Faso,BFA,HOTOSM/OSM,12.352956,-1.442503,,,
Ecole primaire,school,Burkina Faso,BFA,HOTOSM/OSM,12.352405,-1.44103,,,
Ecole primaire,school,Burkina Faso,BFA,HOTOSM/OSM,12.353227,-1.439645,,,
Ecole primaire,school,Burkina Faso,BFA,HOTOSM/OSM,12.357587,-1.440043,,,
Ecole,school,Burkina Faso,BFA,HOTOSM/OSM,12.36333,-1.43637,,,
Ecole primaire,school,Burkina Faso,BFA,HOTOSM/OSM,12.360278,-1.440917,,,
Ecole primaire,school,Burkina Faso,BFA,HOTOSM/OSM,12.364361,-1.440991,,,
Ecole primaire,school,Burkina Faso,BFA,HOTOSM/OSM,12.36543,-1.44106,,,
Ecole primaire,school,Burkina Faso,BFA,HOTOSM/OSM,12.368229,-1.436052,,,
Ecole primaire de Veh,school,Burkina Faso,BFA,HOTOSM/OSM,12.847847,-2.472266,,,
Ecole primaire de Kalamtogo,school,Burkina Faso,BFA,HOTOSM/OSM,12.846336,-2.515258,,,
Ecole primaire de Gogho,school,Burkina Faso,BFA,HOTOSM/OSM,12.877916,-2.517143,,,
Ecole primaire de Korro,school,Burkina Faso,BFA,HOTOSM/OSM,12.884701,-2.575146,,,
Ecole primaire de Gorpouly,school,Burkina Faso,BFA,HOTOSM/OSM,12.855888,-2.72296,,,
Ecole primaire publique de Rabouglitenga,school,Burkina Faso,BFA,HOTOSM/OSM,12.952425,-2.713392,,,
Ecole primaire,school,Burkina Faso,BFA,HOTOSM/OSM,13.111436,-2.596535,,,
CEG,school,Burkina Faso,BFA,HOTOSM/OSM,13.092254,-2.600176,,,
Ecole primaire,school,Burkina Faso,BFA,HOTOSM/OSM,13.05213,-2.599533,,,
Ecole primaire,school,Burkina Faso,BFA,HOTOSM/OSM,13.133034,-2.599039,,,
Ecole primaire,school,Burkina Faso,BFA,HOTOSM/OSM,13.03848,-2.617636,,,
CEG,school,Burkina Faso,BFA,HOTOSM/OSM,13.060812,-2.615033,,,
Ecole primaire,school,Burkina Faso,BFA,HOTOSM/OSM,13.06518,-2.6196,,,
Ecole primaire,school,Burkina Faso,BFA,HOTOSM/OSM,13.066893,-2.687209,,,
Ecole primaire,school,Burkina Faso,BFA,HOTOSM/OSM,13.110151,-2.697084,,,
Ecole primaire publique de Ouindingtenga,school,Burkina Faso,BFA,HOTOSM/OSM,12.924904,-2.720066,,,
Ecole primaire de Niouma,school,Burkina Faso,BFA,HOTOSM/OSM,12.93306,-2.643003,,,
Ecole primaire A,school,Burkina Faso,BFA,HOTOSM/OSM,12.669631,-2.928526,,,
Ancien Centre FJA,school,Burkina Faso,BFA,HOTOSM/OSM,12.665942,-2.928591,,,
Ecole primaire B,school,Burkina Faso,BFA,HOTOSM/OSM,12.655863,-2.924716,,,
Lycée privé Moderne Saint Moïse,school,Burkina Faso,BFA,HOTOSM/OSM,12.693645,-2.889874,,,
Ecole primaire de Kolan,school,Burkina Faso,BFA,HOTOSM/OSM,12.656169,-2.795067,,,
Ecole primaire de Kiendembaye,school,Burkina Faso,BFA,HOTOSM/OSM,12.831385,-2.67056,,,
ecoleprimaire de kera,school,Burkina Faso,BFA,HOTOSM/OSM,12.694588,-2.723413,,,
Ecole primaire de Bôh,school,Burkina Faso,BFA,HOTOSM/OSM,13.399526,-2.523088,,,
Ecole primaire de Yirtaoré,school,Burkina Faso,BFA,HOTOSM/OSM,13.359414,-2.52872,,,
Ecole primaire de Rega,school,Burkina Faso,BFA,HOTOSM/OSM,13.365567,-2.566756,,,
Lycée départemental,school,Burkina Faso,BFA,HOTOSM/OSM,13.394942,-2.586546,,,
Lycée départemental de Zogoré,school,Burkina Faso,BFA,HOTOSM/OSM,13.395003,-2.58673,,,
Ecole primaire,school,Burkina Faso,BFA,HOTOSM/OSM,13.079342,-2.655532,,,
Ecole centre prmaire B,school,Burkina Faso,BFA,HOTOSM/OSM,13.402548,-2.591086,,,
Ecole primaire de Piga-Songdin,school,Burkina Faso,BFA,HOTOSM/OSM,13.344016,-2.58729,,,
Ecole primaire de Rega A,school,Burkina Faso,BFA,HOTOSM/OSM,13.358162,-2.54163,,,
CEG de Zogoré,school,Burkina Faso,BFA,HOTOSM/OSM,13.398034,-2.602384,,,
Ecole Medersa,school,Burkina Faso,BFA,HOTOSM/OSM,13.403981,-2.603477,,,
EPP BANDIE ZERBO,school,Burkina Faso,BFA,HOTOSM/OSM,13.080005,-3.061059,,,
Ecole primaire de Ramanepanga,school,Burkina Faso,BFA,HOTOSM/OSM,13.701002,-2.882185,,,
Ecole primaire de Sambabouli,school,Burkina Faso,BFA,HOTOSM/OSM,13.73789,-2.771215,,,
Ecole,school,Burkina Faso,BFA,HOTOSM/OSM,13.40337,-2.605388,,,
Ecole primaire Lilboré B,school,Burkina Faso,BFA,HOTOSM/OSM,13.402302,-2.611607,,,
Ecole primaire,school,Burkina Faso,BFA,HOTOSM/OSM,13.103316,-2.604637,,,
Ecole primaire,school,Burkina Faso,BFA,HOTOSM/OSM,13.100536,-2.631113,,,
Ecole primaire,school,Burkina Faso,BFA,HOTOSM/OSM,13.132679,-2.63231,,,
Ecole primaire,school,Burkina Faso,BFA,HOTOSM/OSM,13.133217,-2.667956,,,
Ecole primaire,school,Burkina Faso,BFA,HOTOSM/OSM,13.147354,-2.690021,,,
Médersa,school,Burkina Faso,BFA,HOTOSM/OSM,13.138579,-2.597734,,,
Ecole primaire de Noakuy,school,Burkina Faso,BFA,HOTOSM/OSM,12.501346,-3.49664,,,
Ecole,school,Burkina Faso,BFA,HOTOSM/OSM,12.490235,-3.46639,,,
Ecole,school,Burkina Faso,BFA,HOTOSM/OSM,12.493175,-3.462381,,,
CEG/Collège/Lycée,school,Burkina Faso,BFA,HOTOSM/OSM,12.49383,-3.462254,,,
Ecole privée de santé Sainte Edwige Annexe Dédougou,college,Burkina Faso,BFA,HOTOSM/OSM,12.497856,-3.459107,,,
Lycée privé,school,Burkina Faso,BFA,HOTOSM/OSM,12.675835,-2.916741,,,
Ecole primaire Passakongo B,school,Burkina Faso,BFA,HOTOSM/OSM,12.514408,-3.432342,,,
Ecole primaire Passakonga A,school,Burkina Faso,BFA,HOTOSM/OSM,12.513298,-3.431217,,,
ENEP Ecole Nationale des Enseignants du Primaire de Dédougou,college,Burkina Faso,BFA,HOTOSM/OSM,12.523195,-3.413111,,,
Ecole primaire de Massala A,school,Burkina Faso,BFA,HOTOSM/OSM,12.52666,-3.419944,,,
Collège/Lycée ND,school,Burkina Faso,BFA,HOTOSM/OSM,12.517546,-3.417781,,,
Ecole,school,Burkina Faso,BFA,HOTOSM/OSM,12.430054,-1.42225,,,
Ecole primaire,school,Burkina Faso,BFA,HOTOSM/OSM,12.413887,-1.43091,,,
Ecole,school,Burkina Faso,BFA,HOTOSM/OSM,12.422928,-1.421432,,,
Ecole primaire,school,Burkina Faso,BFA,HOTOSM/OSM,12.425854,-1.421988,,,
Ecole primaire,school,Burkina Faso,BFA,HOTOSM/OSM,12.420999,-1.429398,,,
Ecole primaire,school,Burkina Faso,BFA,HOTOSM/OSM,12.417803,-1.437881,,,
Ecole primaire,school,Burkina Faso,BFA,HOTOSM/OSM,12.444476,-1.425237,,,
Ecole primaire,school,Burkina Faso,BFA,HOTOSM/OSM,12.470871,-3.474024,,,
Ecole primaire de Nong-Warbin,school,Burkina Faso,BFA,HOTOSM/OSM,12.448838,-1.431081,,,
Ecole primaire,school,Burkina Faso,BFA,HOTOSM/OSM,12.447195,-1.435127,,,
Ecole,school,Burkina Faso,BFA,HOTOSM/OSM,12.450801,-1.43437,,,
Ecole,school,Burkina Faso,BFA,HOTOSM/OSM,12.452797,-1.435253,,,
Cité Universitaire de Kossodo,university,Burkina Faso,BFA,HOTOSM/OSM,12.428918,-1.46958,,,
Ecole primaire,school,Burkina Faso,BFA,HOTOSM/OSM,12.441216,-1.424741,,,
Ecole primaire de Boron,school,Burkina Faso,BFA,HOTOSM/OSM,12.657132,-3.492389,,,
Ecole primaire de Soro,school,Burkina Faso,BFA,HOTOSM/OSM,12.779144,-3.494575,,,
Ecole primaire de Sono,school,Burkina Faso,BFA,HOTOSM/OSM,12.826484,-3.494881,,,
Ecole primaire,school,Burkina Faso,BFA,HOTOSM/OSM,12.786804,-2.889624,,,
Ecole primaire de Nyon,school,Burkina Faso,BFA,HOTOSM/OSM,12.699595,-2.948912,,,
CEG de Zouma,school,Burkina Faso,BFA,HOTOSM/OSM,12.66099,-2.940873,,,
Ecole primaire de Sien,school,Burkina Faso,BFA,HOTOSM/OSM,12.689158,-2.899167,,,
Ecole primaire de Koury,school,Burkina Faso,BFA,HOTOSM/OSM,12.745206,-3.499626,,,
Ecole primaire,school,Burkina Faso,BFA,HOTOSM/OSM,12.442713,-1.438533,,,
Collège/Lycée ND,school,Burkina Faso,BFA,HOTOSM/OSM,12.518195,-3.416913,,,
Ecole,school,Burkina Faso,BFA,HOTOSM/OSM,12.515691,-3.416339,,,
Ecole primaire de Dakuy,school,Burkina Faso,BFA,HOTOSM/OSM,12.595743,-3.42874,,,
Ecole primaire Soukuy B,school,Burkina Faso,BFA,HOTOSM/OSM,12.601467,-3.472567,,,
Ecole primaire de Bokuy,school,Burkina Faso,BFA,HOTOSM/OSM,12.587451,-3.465642,,,
Ecole primaire de Soukuy A,school,Burkina Faso,BFA,HOTOSM/OSM,12.602014,-3.471776,,,
Ecole primaire de Taré,school,Burkina Faso,BFA,HOTOSM/OSM,12.628033,-3.482724,,,
Ecole primaire de Tionkuy,school,Burkina Faso,BFA,HOTOSM/OSM,12.507895,-3.461742,,,
Lycée départemental de Sono,school,Burkina Faso,BFA,HOTOSM/OSM,12.825158,-3.502032,,,
Ecole primaire de Bantombo,school,Burkina Faso,BFA,HOTOSM/OSM,12.967524,-3.515086,,,
Ecole primaire de DA,school,Burkina Faso,BFA,HOTOSM/OSM,12.989946,-2.910617,,,
CEG deKisson,school,Burkina Faso,BFA,HOTOSM/OSM,12.786562,-2.903507,,,
Ecole primaire de Kisson,school,Burkina Faso,BFA,HOTOSM/OSM,12.789092,-2.904942,,,
Collège privé Yorossi de Soukuy,school,Burkina Faso,BFA,HOTOSM/OSM,12.607522,-3.477538,,,
Ecole primaire de Magnimasso,school,Burkina Faso,BFA,HOTOSM/OSM,12.651016,-3.465548,,,
Ecole primaire de Tiankuy,school,Burkina Faso,BFA,HOTOSM/OSM,12.618989,-3.450434,,,
Ecole ND,school,Burkina Faso,BFA,HOTOSM/OSM,12.605457,-3.451459,,,
Ecole primaire de Yonkuy,school,Burkina Faso,BFA,HOTOSM/OSM,12.607736,-3.447443,,,
collège,school,Burkina Faso,BFA,HOTOSM/OSM,12.576446,-3.295818,,,
CEG de Soukuy,school,Burkina Faso,BFA,HOTOSM/OSM,12.604595,-3.46469,,,
Ecole,school,Burkina Faso,BFA,HOTOSM/OSM,13.243645,-2.203129,,,
Ecole primaire,school,Burkina Faso,BFA,HOTOSM/OSM,13.245538,-2.203177,,,
,school,Burkina Faso,BFA,HOTOSM/OSM,13.267255,-2.159197,yes,,
,school,Burkina Faso,BFA,HOTOSM/OSM,13.297307,-2.160012,yes,,
Ecole,school,Burkina Faso,BFA,HOTOSM/OSM,12.440335,-1.605675,,,
,school,Burkina Faso,BFA,HOTOSM/OSM,13.391274,-2.160907,yes,,
,school,Burkina Faso,BFA,HOTOSM/OSM,13.391705,-2.160907,yes,,
Ecole primaire de Gouroungo,school,Burkina Faso,BFA,HOTOSM/OSM,13.39778,-2.087604,,,
Ecole primaire de Sékéba,school,Burkina Faso,BFA,HOTOSM/OSM,13.326059,-1.965627,,,
,school,Burkina Faso,BFA,HOTOSM/OSM,13.234961,-1.534432,yes,,
,school,Burkina Faso,BFA,HOTOSM/OSM,13.218023,-1.63758,yes,,
,school,Burkina Faso,BFA,HOTOSM/OSM,13.218045,-1.638022,yes,,
,school,Burkina Faso,BFA,HOTOSM/OSM,13.251133,-1.668806,yes,,
,school,Burkina Faso,BFA,HOTOSM/OSM,13.351109,-1.899138,yes,,
École primaire de Zinigma,school,Burkina Faso,BFA,HOTOSM/OSM,13.404914,-1.716301,,,
,school,Burkina Faso,BFA,HOTOSM/OSM,13.263863,-1.940407,yes,,
,school,Burkina Faso,BFA,HOTOSM/OSM,13.242048,-1.936421,yes,,
,school,Burkina Faso,BFA,HOTOSM/OSM,13.235732,-1.941471,yes,,
,school,Burkina Faso,BFA,HOTOSM/OSM,13.235557,-1.941226,yes,,
École de Baszaïdo,school,Burkina Faso,BFA,HOTOSM/OSM,13.293593,-2.387228,,,
Ecole primaire de Kanda-Kanda,school,Burkina Faso,BFA,HOTOSM/OSM,13.237784,-2.429552,,,
Ecole primaire de Rasko,school,Burkina Faso,BFA,HOTOSM/OSM,13.217974,-2.153241,,,
Ecole,school,Burkina Faso,BFA,HOTOSM/OSM,13.20737,-2.138603,,,
Ecole primaire de Gouréa,school,Burkina Faso,BFA,HOTOSM/OSM,13.198033,-2.07896,,,
,school,Burkina Faso,BFA,HOTOSM/OSM,13.17969,-2.123777,yes,,
Ecole primaire de Ouonon,school,Burkina Faso,BFA,HOTOSM/OSM,13.04472,-2.126588,,,
Ecole primaire de Gonsé,school,Burkina Faso,BFA,HOTOSM/OSM,13.081958,-2.080844,,,
Lycée départemental de Kossouka,school,Burkina Faso,BFA,HOTOSM/OSM,13.377275,-1.88522,,,
Ecole primaire de Iria-Yarcé,school,Burkina Faso,BFA,HOTOSM/OSM,13.212393,-2.036467,,,
,school,Burkina Faso,BFA,HOTOSM/OSM,13.217763,-1.965719,yes,,
Ecole primaire de Barma-Mossi,school,Burkina Faso,BFA,HOTOSM/OSM,13.237998,-2.058931,,,
,school,Burkina Faso,BFA,HOTOSM/OSM,13.430766,-1.504515,yes,,
,school,Burkina Faso,BFA,HOTOSM/OSM,13.430317,-1.503893,yes,,
,school,Burkina Faso,BFA,HOTOSM/OSM,13.430249,-1.504561,yes,,
,school,Burkina Faso,BFA,HOTOSM/OSM,13.430263,-1.504224,yes,,
,school,Burkina Faso,BFA,HOTOSM/OSM,13.43031,-1.486563,yes,,
,school,Burkina Faso,BFA,HOTOSM/OSM,13.493244,-1.512126,yes,,
,school,Burkina Faso,BFA,HOTOSM/OSM,13.549339,-1.618002,yes,,
,school,Burkina Faso,BFA,HOTOSM/OSM,13.549365,-1.617659,yes,,
,school,Burkina Faso,BFA,HOTOSM/OSM,13.173959,-1.6324,yes,,
École primaire de Kouka,school,Burkina Faso,BFA,HOTOSM/OSM,13.433287,-1.613243,,,
École primaire de Koumbango,school,Burkina Faso,BFA,HOTOSM/OSM,13.420252,-1.572329,,,
École primaire de Rambo-Watinooma,school,Burkina Faso,BFA,HOTOSM/OSM,13.415352,-1.622884,,,
École primaire de Nongsom,school,Burkina Faso,BFA,HOTOSM/OSM,13.442647,-1.673878,,,
École primaire de Sam,school,Burkina Faso,BFA,HOTOSM/OSM,13.413515,-1.672693,,,
Ecole primaire,school,Burkina Faso,BFA,HOTOSM/OSM,13.568336,-1.926754,,,
,school,Burkina Faso,BFA,HOTOSM/OSM,13.5907,-1.734025,yes,,
,school,Burkina Faso,BFA,HOTOSM/OSM,13.589894,-1.733751,yes,,
,school,Burkina Faso,BFA,HOTOSM/OSM,13.600233,-1.846103,yes,,
,school,Burkina Faso,BFA,HOTOSM/OSM,13.598679,-1.86075,yes,,
,school,Burkina Faso,BFA,HOTOSM/OSM,13.598726,-1.861043,yes,,
Ecole primaire de Kougoussoula,school,Burkina Faso,BFA,HOTOSM/OSM,13.605572,-1.922095,,,
Ecole primaire de Robolo B,school,Burkina Faso,BFA,HOTOSM/OSM,13.653247,-1.911185,,,
Ecole primaire de Robolo A,school,Burkina Faso,BFA,HOTOSM/OSM,13.669587,-1.912848,,,
École primaire de Lourfa,school,Burkina Faso,BFA,HOTOSM/OSM,13.496129,-1.629048,,,
,school,Burkina Faso,BFA,HOTOSM/OSM,13.217312,-1.638059,yes,,
École primaire de Ouazellé,school,Burkina Faso,BFA,HOTOSM/OSM,13.183663,-1.570151,,,
,school,Burkina Faso,BFA,HOTOSM/OSM,13.149706,-1.630183,yes,,
,school,Burkina Faso,BFA,HOTOSM/OSM,13.493672,-1.512427,yes,,
,school,Burkina Faso,BFA,HOTOSM/OSM,13.553525,-1.500803,yes,,
École,school,Burkina Faso,BFA,HOTOSM/OSM,13.565551,-1.500697,,,
,school,Burkina Faso,BFA,HOTOSM/OSM,13.515716,-1.510149,yes,,
,school,Burkina Faso,BFA,HOTOSM/OSM,13.083575,-1.602459,yes,,
,school,Burkina Faso,BFA,HOTOSM/OSM,13.083372,-1.602824,yes,,
,school,Burkina Faso,BFA,HOTOSM/OSM,13.118331,-1.608718,yes,,
,school,Burkina Faso,BFA,HOTOSM/OSM,13.20137,-1.527857,yes,,
,school,Burkina Faso,BFA,HOTOSM/OSM,13.201369,-1.527448,yes,,
,school,Burkina Faso,BFA,HOTOSM/OSM,13.212468,-1.521456,yes,,
,school,Burkina Faso,BFA,HOTOSM/OSM,13.416758,-1.480011,yes,,
École primaire de Souryala,school,Burkina Faso,BFA,HOTOSM/OSM,13.207422,-1.432961,,,
,school,Burkina Faso,BFA,HOTOSM/OSM,13.281783,-1.47377,yes,,
Collègue Amitié,school,Burkina Faso,BFA,HOTOSM/OSM,13.299422,-1.531127,,,
Collège amitié 1 de Kongoussi,school,Burkina Faso,BFA,HOTOSM/OSM,13.299401,-1.531037,,,
Lycée provincial de kongoussi LPK,school,Burkina Faso,BFA,HOTOSM/OSM,13.306918,-1.521619,,,
École primaire de Lourgou,school,Burkina Faso,BFA,HOTOSM/OSM,13.405793,-1.684434,,,
Lycée de Lourgou,school,Burkina Faso,BFA,HOTOSM/OSM,13.410239,-1.683967,,,
École primaire de Temnaoré,school,Burkina Faso,BFA,HOTOSM/OSM,13.4246,-1.735572,,,
École primaire de Temnaoré-Foulbé,school,Burkina Faso,BFA,HOTOSM/OSM,13.437872,-1.736628,,,
École primaire de Darbiti 1,school,Burkina Faso,BFA,HOTOSM/OSM,13.43287,-1.757033,,,
Ecole primaire de Tansombo,school,Burkina Faso,BFA,HOTOSM/OSM,13.569897,-1.934594,,,
,school,Burkina Faso,BFA,HOTOSM/OSM,13.250702,-1.668844,yes,,
École primaire de Bogonam,school,Burkina Faso,BFA,HOTOSM/OSM,13.378462,-1.679388,,,
,school,Burkina Faso,BFA,HOTOSM/OSM,13.395321,-1.494492,yes,,
,school,Burkina Faso,BFA,HOTOSM/OSM,13.212037,-1.521187,yes,,
Ecole primaire de Bouri,school,Burkina Faso,BFA,HOTOSM/OSM,13.522619,-2.43936,,,
Ecple primaire de Pirgo A,school,Burkina Faso,BFA,HOTOSM/OSM,13.510125,-2.463356,,,
École primaire de Sissamba,school,Burkina Faso,BFA,HOTOSM/OSM,13.503869,-2.464046,,,
Ecole primaire,school,Burkina Faso,BFA,HOTOSM/OSM,13.495677,-2.469698,,,
Ecple primaire,school,Burkina Faso,BFA,HOTOSM/OSM,13.49782,-2.459705,,,
Ecole primaire,school,Burkina Faso,BFA,HOTOSM/OSM,13.494148,-2.443526,,,
Ecole évangélique la Plenitude,school,Burkina Faso,BFA,HOTOSM/OSM,12.305664,-1.614027,,,
Ecole primaire Wend-Yoslgo,school,Burkina Faso,BFA,HOTOSM/OSM,12.307684,-1.612862,,,
Ecole maternelle l'Univers des enfants,school,Burkina Faso,BFA,HOTOSM/OSM,12.302171,-1.61645,,,
Ecole primaire,school,Burkina Faso,BFA,HOTOSM/OSM,12.304506,-1.608797,,,
Ecole franco-arabe Oumeime,school,Burkina Faso,BFA,HOTOSM/OSM,12.301371,-1.606626,,,
Ecole,school,Burkina Faso,BFA,HOTOSM/OSM,12.300925,-1.604523,,,
Université de Formation Biblique et Théologique Logos,,Burkina Faso,BFA,HOTOSM/OSM,12.334617,-1.60699,university,,
Ecole primaire,school,Burkina Faso,BFA,HOTOSM/OSM,12.300264,-1.600341,,,
Ecole primaire,school,Burkina Faso,BFA,HOTOSM/OSM,12.305402,-1.600866,,,
Lycée privé Wend lassida,college,Burkina Faso,BFA,HOTOSM/OSM,13.539686,-2.407862,,,
Lycée privé Wend lassida,college,Burkina Faso,BFA,HOTOSM/OSM,13.53896,-2.407765,,,
Ecole primaire de Zimba,school,Burkina Faso,BFA,HOTOSM/OSM,13.505132,-2.450002,,,
CEG/Lycée,school,Burkina Faso,BFA,HOTOSM/OSM,13.53883,-2.416998,,,
Ecole primaire,school,Burkina Faso,BFA,HOTOSM/OSM,13.540632,-2.419835,,,
Ecole primaire,school,Burkina Faso,BFA,HOTOSM/OSM,13.534154,-2.407068,,,
Lycée/CEG,school,Burkina Faso,BFA,HOTOSM/OSM,13.531075,-2.405359,,,
Ecole primaire Bougoudgo,school,Burkina Faso,BFA,HOTOSM/OSM,13.529693,-2.425825,,,
Ecole franco-arabe,school,Burkina Faso,BFA,HOTOSM/OSM,13.504654,-2.408884,,,
Ecole primaire Nabdogo,school,Burkina Faso,BFA,HOTOSM/OSM,13.502736,-2.412031,,,
Ecole,school,Burkina Faso,BFA,HOTOSM/OSM,13.539115,-2.407999,,,
Ecole primaire,school,Burkina Faso,BFA,HOTOSM/OSM,13.386997,-2.347904,,,
Ecole primaire,school,Burkina Faso,BFA,HOTOSM/OSM,13.384208,-2.3466,,,
CEG,school,Burkina Faso,BFA,HOTOSM/OSM,13.383589,-2.339066,,,
Ecole primaire,school,Burkina Faso,BFA,HOTOSM/OSM,13.38643,-2.304384,,,
Ecole primaire,school,Burkina Faso,BFA,HOTOSM/OSM,13.498227,-2.364721,,,
Ecole primaire de Ridimbo,school,Burkina Faso,BFA,HOTOSM/OSM,13.158325,-2.231539,,,
Ecole primaire de Pouima,school,Burkina Faso,BFA,HOTOSM/OSM,13.141803,-2.28574,,,
Ecole B,school,Burkina Faso,BFA,HOTOSM/OSM,13.326132,-2.234023,,,
Lycée Départemental de Bassi,school,Burkina Faso,BFA,HOTOSM/OSM,13.320745,-2.241286,,,
ECOLE A,school,Burkina Faso,BFA,HOTOSM/OSM,13.327855,-2.241125,,,
CEG,school,Burkina Faso,BFA,HOTOSM/OSM,13.495203,-2.362629,,,
Ecole primaire,school,Burkina Faso,BFA,HOTOSM/OSM,13.484989,-2.352512,,,
Ecole primaire Bougoudgo,school,Burkina Faso,BFA,HOTOSM/OSM,13.483629,-2.368332,,,
Ecole primaire,school,Burkina Faso,BFA,HOTOSM/OSM,13.457402,-2.372956,,,
Ecole primaire,school,Burkina Faso,BFA,HOTOSM/OSM,13.429526,-2.372087,,,
Ecole primaire Nacombgo,school,Burkina Faso,BFA,HOTOSM/OSM,13.40666,-2.36676,,,
Collège communal,school,Burkina Faso,BFA,HOTOSM/OSM,13.390536,-2.355516,,,
ECOLE,school,Burkina Faso,BFA,HOTOSM/OSM,13.418665,-2.394124,,,
ECOLE,school,Burkina Faso,BFA,HOTOSM/OSM,13.381254,-2.413189,,,
Ecole,school,Burkina Faso,BFA,HOTOSM/OSM,13.327991,-2.383497,,,
Collége Privée ECLA,school,Burkina Faso,BFA,HOTOSM/OSM,13.366133,-2.386003,,,
Lycée de Bougounam,school,Burkina Faso,BFA,HOTOSM/OSM,13.363551,-2.381405,,,
ECOLE A,school,Burkina Faso,BFA,HOTOSM/OSM,13.360978,-2.391286,,,
ECOLE B,school,Burkina Faso,BFA,HOTOSM/OSM,13.365636,-2.397032,,,
ECOLE C,school,Burkina Faso,BFA,HOTOSM/OSM,13.372865,-2.401492,,,
Ecole,school,Burkina Faso,BFA,HOTOSM/OSM,13.407003,-2.372678,,,
Lycée Philippe Zinda Kaboré,school,Burkina Faso,BFA,HOTOSM/OSM,12.374821,-1.518133,,,
Lycéé Privée Mixte Bangre Nooma,school,Burkina Faso,BFA,HOTOSM/OSM,12.374059,-1.51616,,,
École Kwamé N'Krumah B,school,Burkina Faso,BFA,HOTOSM/OSM,12.375004,-1.548698,,,
"Institut Franco-Arabe ""Al Elmi""",school,Burkina Faso,BFA,HOTOSM/OSM,12.373637,-1.554292,,,
École publique Ouogodogo C D,school,Burkina Faso,BFA,HOTOSM/OSM,12.372746,-1.566888,,,
École maternelle le petit David,school,Burkina Faso,BFA,HOTOSM/OSM,12.376285,-1.56549,,,
Ecole Ouogodogo A B,school,Burkina Faso,BFA,HOTOSM/OSM,12.378432,-1.55817,,,
Ecole Naba Wagsé B,school,Burkina Faso,BFA,HOTOSM/OSM,12.379582,-1.553402,,,
Ecole primaire privée mixte la voie du succès 1,school,Burkina Faso,BFA,HOTOSM/OSM,12.382197,-1.554342,,,
École Tampouy C,school,Burkina Faso,BFA,HOTOSM/OSM,12.392115,-1.554062,,,
Collège Protestant,school,Burkina Faso,BFA,HOTOSM/OSM,12.39256,-1.518716,,,
ECAOYYA Norghin B,school,Burkina Faso,BFA,HOTOSM/OSM,12.384718,-1.528148,,,
Garderie,school,Burkina Faso,BFA,HOTOSM/OSM,12.381788,-1.527052,,,
COLLÈGE PRIVÉ OMAR BEN,school,Burkina Faso,BFA,HOTOSM/OSM,12.38819,-1.565923,,,
Lycée privé le Salut,school,Burkina Faso,BFA,HOTOSM/OSM,12.388165,-1.565674,,,
Lycée classiquede Sig-Nonghin,school,Burkina Faso,BFA,HOTOSM/OSM,12.387728,-1.566763,,,
École Wekim Yam,school,Burkina Faso,BFA,HOTOSM/OSM,12.386297,-1.561514,,,
École Kolg-Kom,school,Burkina Faso,BFA,HOTOSM/OSM,12.38486,-1.572365,,,
Centre d'eveil et d'education prescolaire,kindergarten,Burkina Faso,BFA,HOTOSM/OSM,12.386457,-1.574544,,,
La Renaissance,school,Burkina Faso,BFA,HOTOSM/OSM,12.38848,-1.567734,,,
Lycee Prive la Reference,school,Burkina Faso,BFA,HOTOSM/OSM,12.388713,-1.573227,,,
École Signonghin A B,school,Burkina Faso,BFA,HOTOSM/OSM,12.393165,-1.576371,,,
Bibliothèque,kindergarten,Burkina Faso,BFA,HOTOSM/OSM,12.390015,-1.582745,,,
École Bass-Yiré,school,Burkina Faso,BFA,HOTOSM/OSM,12.387551,-1.582526,,,
Complexe Scolaire Wend-Lamita,school,Burkina Faso,BFA,HOTOSM/OSM,12.387019,-1.579172,,,
Université Populaire Africaine,college,Burkina Faso,BFA,HOTOSM/OSM,12.376968,-1.534623,,,
École larlé A B,school,Burkina Faso,BFA,HOTOSM/OSM,12.376489,-1.536026,,,
"Complexe scolaire ""Les Elites""",school,Burkina Faso,BFA,HOTOSM/OSM,12.392742,-1.564456,,,
Groupe Scolaire LE PETIT POUCET,school,Burkina Faso,BFA,HOTOSM/OSM,12.371475,-1.495603,,,
Université Evangélique du Kadiogo,university,Burkina Faso,BFA,HOTOSM/OSM,12.372923,-1.495617,,,
Institut Supérieur de Management et de Technologie,university,Burkina Faso,BFA,HOTOSM/OSM,12.373568,-1.493669,,,
Lycée Réveil,school,Burkina Faso,BFA,HOTOSM/OSM,12.371433,-1.498824,,,
Belemtissé 3,school,Burkina Faso,BFA,HOTOSM/OSM,12.370346,-1.498578,,,
Master SIG,college,Burkina Faso,BFA,HOTOSM/OSM,12.376764,-1.50392,,,
2iE,university,Burkina Faso,BFA,HOTOSM/OSM,12.379293,-1.503614,,,
Ecole primaire française Saint-Exupéry,school,Burkina Faso,BFA,HOTOSM/OSM,12.370443,-1.517855,,,
Ecole de Douane,school,Burkina Faso,BFA,HOTOSM/OSM,12.375327,-1.520059,,,
École Nemnin,school,Burkina Faso,BFA,HOTOSM/OSM,12.381579,-1.532397,,,
Ecole primaire privé Man Daabo,school,Burkina Faso,BFA,HOTOSM/OSM,12.377949,-1.523406,,,
ecole primaire dapoya 2,school,Burkina Faso,BFA,HOTOSM/OSM,12.381695,-1.5189,,,
École Sacré-Cœur de Dapoya,school,Burkina Faso,BFA,HOTOSM/OSM,12.382755,-1.52307,,,
Collège de Formation Technique,school,Burkina Faso,BFA,HOTOSM/OSM,12.375759,-1.516541,,,
CNRST-STIC,school,Burkina Faso,BFA,HOTOSM/OSM,12.381534,-1.504062,,,
Lycée BOGODOGO de Ouagadougou,school,Burkina Faso,BFA,HOTOSM/OSM,12.380844,-1.506501,,,
ENAM,school,Burkina Faso,BFA,HOTOSM/OSM,12.378817,-1.506035,,,
Ecole Nongremasson,school,Burkina Faso,BFA,HOTOSM/OSM,12.381673,-1.514863,,,
École Paspanga A et B,school,Burkina Faso,BFA,HOTOSM/OSM,12.377588,-1.517516,,,
Ecole primaire Paspanga C,school,Burkina Faso,BFA,HOTOSM/OSM,12.378239,-1.515328,,,
Lycée privé JOHN KENEDY,school,Burkina Faso,BFA,HOTOSM/OSM,12.386029,-1.541288,,,
Ecole privée apostolique,school,Burkina Faso,BFA,HOTOSM/OSM,12.392676,-1.536421,,,
Complexe scolaire la source du savoir,school,Burkina Faso,BFA,HOTOSM/OSM,12.38238,-1.549759,,,
École Kologh-Naba,school,Burkina Faso,BFA,HOTOSM/OSM,12.381115,-1.548549,,,
Ecole Yennega de Ouidi,school,Burkina Faso,BFA,HOTOSM/OSM,12.378674,-1.544459,,,
Collège des jeunes filles Notre Dame de Kologh-Naba,school,Burkina Faso,BFA,HOTOSM/OSM,12.381069,-1.546076,,,
École Communale B de Ouidi,school,Burkina Faso,BFA,HOTOSM/OSM,12.379464,-1.536789,,,
Lycée Dimdolossom,school,Burkina Faso,BFA,HOTOSM/OSM,12.37756,-1.535703,,,
Bâtiment Scientifique,school,Burkina Faso,BFA,HOTOSM/OSM,12.380019,-1.502087,,,
École Primaire Publique KILWIN A et B,school,Burkina Faso,BFA,HOTOSM/OSM,12.394551,-1.592243,,,
École Galiyam,school,Burkina Faso,BFA,HOTOSM/OSM,12.405683,-1.579585,,,
lycée privé Sig Noghin,school,Burkina Faso,BFA,HOTOSM/OSM,12.401093,-1.577055,,,
École de CNSS,school,Burkina Faso,BFA,HOTOSM/OSM,12.393563,-1.583601,,,
Collège Nakem Zanga,school,Burkina Faso,BFA,HOTOSM/OSM,12.39578,-1.581333,,,
École basywensida,school,Burkina Faso,BFA,HOTOSM/OSM,12.39501,-1.576513,,,
École Tampouy A B,school,Burkina Faso,BFA,HOTOSM/OSM,12.395135,-1.570143,,,
Soeurs Aspirat,university,Burkina Faso,BFA,HOTOSM/OSM,12.394949,-1.568215,,,
"Complexe scolaire ""Bendré"" annexe",kindergarten,Burkina Faso,BFA,HOTOSM/OSM,12.397259,-1.567444,,,
École notre Dame de l´Espérance,school,Burkina Faso,BFA,HOTOSM/OSM,12.401505,-1.569486,,,
École Sakada,school,Burkina Faso,BFA,HOTOSM/OSM,12.402414,-1.574755,,,
"École bilingue privé ""Les Tout-petits C",school,Burkina Faso,BFA,HOTOSM/OSM,12.400707,-1.562872,,,
Les petites Elites,kindergarten,Burkina Faso,BFA,HOTOSM/OSM,12.39943,-1.563579,,,
COLLEGE LE RONIER,school,Burkina Faso,BFA,HOTOSM/OSM,12.328243,-1.466787,,,
"Complexe scolaire ""La Solution""",school,Burkina Faso,BFA,HOTOSM/OSM,12.325256,-1.467037,,,
"Centre d'éveil ""Les Flambeaux de SCHECKINA""",school,Burkina Faso,BFA,HOTOSM/OSM,12.32324,-1.463352,,,
"Complexe scolaire ""Bendré""",school,Burkina Faso,BFA,HOTOSM/OSM,12.396607,-1.566982,,,
"Lycée Privé""Les intellos""",school,Burkina Faso,BFA,HOTOSM/OSM,12.396177,-1.56716,,,
École Tampouy E,school,Burkina Faso,BFA,HOTOSM/OSM,12.395163,-1.564175,,,
Lycée municipal,school,Burkina Faso,BFA,HOTOSM/OSM,12.397157,-1.560756,,,
Ecole Kossoghin,school,Burkina Faso,BFA,HOTOSM/OSM,12.400938,-1.554454,,,
Complexe scolaire Eurêka,school,Burkina Faso,BFA,HOTOSM/OSM,12.415132,-1.562417,,,
Complexe Scolaire SIGUIAN,college,Burkina Faso,BFA,HOTOSM/OSM,12.431338,-1.566519,,,
Lycée Som-Pagnimdi de Kamboinsin,school,Burkina Faso,BFA,HOTOSM/OSM,12.444186,-1.562205,,,
le cercle des enfants,,Burkina Faso,BFA,HOTOSM/OSM,12.45169,-1.553197,school,,
2iE,university,Burkina Faso,BFA,HOTOSM/OSM,12.462079,-1.551173,,,
2iE,university,Burkina Faso,BFA,HOTOSM/OSM,12.459449,-1.556838,,,
EAGCO,college,Burkina Faso,BFA,HOTOSM/OSM,12.326222,-1.477133,,,
Lycée Privé la Verdure,university,Burkina Faso,BFA,HOTOSM/OSM,12.390894,-1.556623,,,
Ecole superieure SUP MANAGEMENT,university,Burkina Faso,BFA,HOTOSM/OSM,12.387657,-1.556919,,,
"Complexe scolaire ""Koss-Yam Plus""",school,Burkina Faso,BFA,HOTOSM/OSM,12.39246,-1.564902,,,
"École bilingue privé ""Les Tout-petits C",school,Burkina Faso,BFA,HOTOSM/OSM,12.40012,-1.563603,,,
Complexe Scolaire Privé Bissongo II,school,Burkina Faso,BFA,HOTOSM/OSM,12.434828,-1.58879,,,
"École Primaire Toecin A,B et C",school,Burkina Faso,BFA,HOTOSM/OSM,12.385854,-1.57795,,,
Centre d'eveil et d'education prescolaire et primaire,school,Burkina Faso,BFA,HOTOSM/OSM,12.384626,-1.579773,,,
Les cours privés de la Solidarité,school,Burkina Faso,BFA,HOTOSM/OSM,12.377364,-1.571739,,,
École publique Nongomikim,school,Burkina Faso,BFA,HOTOSM/OSM,12.372433,-1.572801,,,
École primaire privée Song-Taba,school,Burkina Faso,BFA,HOTOSM/OSM,12.371424,-1.574696,,,
École Franco-Arabe,school,Burkina Faso,BFA,HOTOSM/OSM,12.371508,-1.576207,,,
ECOLE RIMKIETA,school,Burkina Faso,BFA,HOTOSM/OSM,12.378184,-1.585582,,,
Complexe Scolaire Les Petits Pionniers,school,Burkina Faso,BFA,HOTOSM/OSM,12.379551,-1.611382,,,
Lycée Wendenda,school,Burkina Faso,BFA,HOTOSM/OSM,12.391424,-1.585783,,,
École de Signonghin C,school,Burkina Faso,BFA,HOTOSM/OSM,12.396375,-1.584868,,,
Lycée Technique Nouvelle Vision,school,Burkina Faso,BFA,HOTOSM/OSM,12.393722,-1.586751,,,
Centre Dominique Chauvet d´arcizas,school,Burkina Faso,BFA,HOTOSM/OSM,12.397384,-1.58659,,,
Groupe Scolaire E.D.I.F II,school,Burkina Faso,BFA,HOTOSM/OSM,12.440005,-1.602322,,,
École Bambi-Metais,school,Burkina Faso,BFA,HOTOSM/OSM,12.401142,-1.565045,,,
Ecole primaire de Ouattigué,school,Burkina Faso,BFA,HOTOSM/OSM,13.720484,-1.740684,,,
,school,Burkina Faso,BFA,HOTOSM/OSM,13.692736,-1.720754,yes,,
,school,Burkina Faso,BFA,HOTOSM/OSM,13.692107,-1.720732,yes,,
,school,Burkina Faso,BFA,HOTOSM/OSM,13.636241,-1.555749,yes,,
,school,Burkina Faso,BFA,HOTOSM/OSM,13.636768,-1.555675,yes,,
,school,Burkina Faso,BFA,HOTOSM/OSM,13.64547,-1.495149,yes,,
,school,Burkina Faso,BFA,HOTOSM/OSM,13.645369,-1.495615,yes,,
,school,Burkina Faso,BFA,HOTOSM/OSM,13.609409,-1.489747,yes,,
,school,Burkina Faso,BFA,HOTOSM/OSM,13.60963,-1.489754,yes,,
,school,Burkina Faso,BFA,HOTOSM/OSM,13.826282,-1.477034,yes,,
Lycée Privé Yilin international,school,Burkina Faso,BFA,HOTOSM/OSM,12.373938,-1.48825,,,
,school,Burkina Faso,BFA,HOTOSM/OSM,13.830382,-1.602971,yes,,
Ecole primaire publique Djibo C,school,Burkina Faso,BFA,HOTOSM/OSM,14.106709,-1.625307,,,
Ecole B,school,Burkina Faso,BFA,HOTOSM/OSM,14.099194,-1.63261,,,
Ecole Tanghin C,school,Burkina Faso,BFA,HOTOSM/OSM,12.400929,-1.539436,,,
Ecole Taombila A B,school,Burkina Faso,BFA,HOTOSM/OSM,12.404373,-1.538574,,,
Ecole du Secteur 23 B,school,Burkina Faso,BFA,HOTOSM/OSM,12.401739,-1.532461,,,
Ecole Tanghin barrage A B C,school,Burkina Faso,BFA,HOTOSM/OSM,12.394649,-1.531825,,,
Ecole primaire de Rounga,school,Burkina Faso,BFA,HOTOSM/OSM,13.676554,-1.886561,,,
CEG de Rounga,school,Burkina Faso,BFA,HOTOSM/OSM,13.685626,-1.880604,,,
Ecole primaire de Kobo,school,Burkina Faso,BFA,HOTOSM/OSM,13.714107,-1.825556,,,
Ecole primaire de Rounga (Q Magarougou),school,Burkina Faso,BFA,HOTOSM/OSM,13.691406,-1.891277,,,
Ecole primaire de Sirfou,school,Burkina Faso,BFA,HOTOSM/OSM,13.747592,-1.897439,,,
CEG de Hitté,school,Burkina Faso,BFA,HOTOSM/OSM,13.763542,-1.853204,,,
,school,Burkina Faso,BFA,HOTOSM/OSM,13.805839,-1.569748,yes,,
,school,Burkina Faso,BFA,HOTOSM/OSM,13.830031,-1.603185,yes,,
Ecole primaire de Hitté,school,Burkina Faso,BFA,HOTOSM/OSM,13.763315,-1.847809,,,
Ecole primaire de Hitté,school,Burkina Faso,BFA,HOTOSM/OSM,13.747316,-1.856325,,,
CEG de Hitté,school,Burkina Faso,BFA,HOTOSM/OSM,13.749424,-1.856931,,,
Ecole primaire de Hitté-Tanvoussé,school,Burkina Faso,BFA,HOTOSM/OSM,13.752357,-1.838794,,,
Ecole primaire de Ouattigué,school,Burkina Faso,BFA,HOTOSM/OSM,13.724575,-1.747735,,,
université Libre du Burkina ULB,school,Burkina Faso,BFA,HOTOSM/OSM,12.398493,-1.51332,,,
"École ""Le Messager""",school,Burkina Faso,BFA,HOTOSM/OSM,12.394455,-1.514366,,,
"École ""Sabin Barrage"" A B C",school,Burkina Faso,BFA,HOTOSM/OSM,12.396348,-1.513938,,,
École zone du bois,school,Burkina Faso,BFA,HOTOSM/OSM,12.38582,-1.49262,,,
École de l´amitié,school,Burkina Faso,BFA,HOTOSM/OSM,12.384639,-1.487688,,,
École Belemtissé,school,Burkina Faso,BFA,HOTOSM/OSM,12.384103,-1.492305,,,
Ecole Belemtissé,school,Burkina Faso,BFA,HOTOSM/OSM,12.384137,-1.492356,,,
École nationale de santé animale,school,Burkina Faso,BFA,HOTOSM/OSM,12.385067,-1.497022,,,
Lycée Technique de Ouagadougou,school,Burkina Faso,BFA,HOTOSM/OSM,12.381803,-1.497668,,,
École Tanghin Barrage A B C,school,Burkina Faso,BFA,HOTOSM/OSM,12.394557,-1.531499,,,
Université Joseph Ki-Zerbo de Ouagadougou,university,Burkina Faso,BFA,HOTOSM/OSM,12.378602,-1.500463,,,
INSTITUT SUPÉRIEUR DES SCIENCES DE LA POPULATION,college,Burkina Faso,BFA,HOTOSM/OSM,12.376608,-1.498576,,,
École Communale de Zogona,school,Burkina Faso,BFA,HOTOSM/OSM,12.376703,-1.494702,,,
École Internationale,school,Burkina Faso,BFA,HOTOSM/OSM,12.380061,-1.489485,,,
École Franco-arabe,school,Burkina Faso,BFA,HOTOSM/OSM,12.380398,-1.487536,,,
Collège Horizon International,school,Burkina Faso,BFA,HOTOSM/OSM,12.379557,-1.48815,,,
Institut technique et commercial Akpode (ITCA),college,Burkina Faso,BFA,HOTOSM/OSM,12.379532,-1.487618,,,
Ecole franco-arabe,school,Burkina Faso,BFA,HOTOSM/OSM,12.407616,-1.509589,,,
Ecole primaire Paspanga D,school,Burkina Faso,BFA,HOTOSM/OSM,12.37767,-1.514414,,,
Lycée Nelson Mandela,school,Burkina Faso,BFA,HOTOSM/OSM,12.376601,-1.515031,,,
Centre Africain de Diffusion Islamique,school,Burkina Faso,BFA,HOTOSM/OSM,12.377537,-1.490933,,,
"Crèche maternelle ""La belle enfance""",kindergarten,Burkina Faso,BFA,HOTOSM/OSM,12.373983,-1.491413,,,
École Doctorale Université Thomas Sankara,university,Burkina Faso,BFA,HOTOSM/OSM,12.375317,-1.486521,,,
UO2 présidence,school,Burkina Faso,BFA,HOTOSM/OSM,12.37536,-1.485265,,,
Amphi D de l'Union africaine,,Burkina Faso,BFA,HOTOSM/OSM,12.379969,-1.50034,university,,
École Tanghin A,school,Burkina Faso,BFA,HOTOSM/OSM,12.405071,-1.518197,,,
Ecole primaire ATA,school,Burkina Faso,BFA,HOTOSM/OSM,12.406962,-1.533566,,,
Ecole A,school,Burkina Faso,BFA,HOTOSM/OSM,14.098733,-1.63302,,,
Lycée Provincial de Djibo (LPD),school,Burkina Faso,BFA,HOTOSM/OSM,14.090335,-1.621488,,,
Lycée privé la voix du peuple,school,Burkina Faso,BFA,HOTOSM/OSM,12.420316,-1.53936,,,
Lycée Lumière du faso,school,Burkina Faso,BFA,HOTOSM/OSM,12.421995,-1.535421,,,
Lycée Bangporé,school,Burkina Faso,BFA,HOTOSM/OSM,12.42439,-1.534947,,,
Collège privé charles peguy,school,Burkina Faso,BFA,HOTOSM/OSM,12.401488,-1.514111,,,
Grand Seminaire St Jean,university,Burkina Faso,BFA,HOTOSM/OSM,12.409147,-1.55042,,,
Ecole Wendenda,school,Burkina Faso,BFA,HOTOSM/OSM,12.396216,-1.549352,,,
Complexe scolaire béniso,school,Burkina Faso,BFA,HOTOSM/OSM,12.39687,-1.539382,,,
Ecole Elnadia,school,Burkina Faso,BFA,HOTOSM/OSM,12.401909,-1.537549,,,
Ecoole Elnadia,school,Burkina Faso,BFA,HOTOSM/OSM,12.401955,-1.537571,,,
Complexe scolaire de l´Église Pentecôte,school,Burkina Faso,BFA,HOTOSM/OSM,12.412945,-1.506042,,,
Lycée d´excellence Nour Alanour,school,Burkina Faso,BFA,HOTOSM/OSM,12.415838,-1.502988,,,
Ecole Somgandé B D,school,Burkina Faso,BFA,HOTOSM/OSM,12.412422,-1.499164,,,
Ecole Somgandé A C,school,Burkina Faso,BFA,HOTOSM/OSM,12.411208,-1.490945,,,
Université Libre du Burkina,university,Burkina Faso,BFA,HOTOSM/OSM,12.399056,-1.508356,,,
Ecole Kiswensida,school,Burkina Faso,BFA,HOTOSM/OSM,12.399873,-1.508073,,,
Ecole primaire de Wanobé,school,Burkina Faso,BFA,HOTOSM/OSM,13.621047,-2.076969,,,
Ecole primaire de Petané,school,Burkina Faso,BFA,HOTOSM/OSM,13.685009,-2.079562,,,
Ecole primaire de Todiam,school,Burkina Faso,BFA,HOTOSM/OSM,13.655008,-2.130295,,,
CEG de Todiam,school,Burkina Faso,BFA,HOTOSM/OSM,13.65574,-2.131801,,,
Ecole primaire,school,Burkina Faso,BFA,HOTOSM/OSM,13.514651,-2.178341,,,
Médersa,school,Burkina Faso,BFA,HOTOSM/OSM,13.50819,-2.161733,,,
Ecole primaire,school,Burkina Faso,BFA,HOTOSM/OSM,13.522536,-2.153774,,,
Ecole primaire Lilboré A,school,Burkina Faso,BFA,HOTOSM/OSM,13.397839,-2.610911,,,
Ecole primaire de Vini,school,Burkina Faso,BFA,HOTOSM/OSM,13.560005,-2.095002,,,
Ecole primaire de Saïgouma,school,Burkina Faso,BFA,HOTOSM/OSM,13.57273,-2.121145,,,
Ecole primaire de Séléguen,school,Burkina Faso,BFA,HOTOSM/OSM,13.584841,-2.080906,,,
Ecole,school,Burkina Faso,BFA,HOTOSM/OSM,13.444555,-1.958846,,,
Ecole primaire,school,Burkina Faso,BFA,HOTOSM/OSM,13.420196,-2.081754,,,
Médersa,school,Burkina Faso,BFA,HOTOSM/OSM,13.418104,-2.084665,,,
Ecole primaire,school,Burkina Faso,BFA,HOTOSM/OSM,13.520792,-2.148586,,,
Ecole primaire de Rambo,school,Burkina Faso,BFA,HOTOSM/OSM,13.607168,-2.113481,,,
Ecole primaire,school,Burkina Faso,BFA,HOTOSM/OSM,13.633048,-2.128289,,,
Ecole franco-arabe,school,Burkina Faso,BFA,HOTOSM/OSM,13.68732,-1.966243,,,
CEG de Ouindigui,school,Burkina Faso,BFA,HOTOSM/OSM,13.685164,-1.960038,,,
CEG de Soranga,school,Burkina Faso,BFA,HOTOSM/OSM,13.667905,-1.959783,,,
Ecole primaire de Soranga,school,Burkina Faso,BFA,HOTOSM/OSM,13.666177,-1.959232,,,
Ecole primaire de Koumna-Koudgo,school,Burkina Faso,BFA,HOTOSM/OSM,13.617754,-2.008252,,,
CEG Boully,school,Burkina Faso,BFA,HOTOSM/OSM,13.612043,-2.119133,,,
Ecole primaire de Doussaré,school,Burkina Faso,BFA,HOTOSM/OSM,13.596559,-1.958324,,,
Ecole primaire de Koumna,school,Burkina Faso,BFA,HOTOSM/OSM,13.60421,-2.0708,,,
Ecole primaire,school,Burkina Faso,BFA,HOTOSM/OSM,13.598007,-2.112464,,,
CEG de Rambo,school,Burkina Faso,BFA,HOTOSM/OSM,13.604284,-2.116653,,,
Ecole primaire,school,Burkina Faso,BFA,HOTOSM/OSM,13.476794,-2.162593,,,
Médersa,school,Burkina Faso,BFA,HOTOSM/OSM,13.481679,-2.168156,,,
Ecole primaire,school,Burkina Faso,BFA,HOTOSM/OSM,13.482109,-2.195587,,,
CEG,school,Burkina Faso,BFA,HOTOSM/OSM,13.468376,-2.175836,,,
Ecole primaire,school,Burkina Faso,BFA,HOTOSM/OSM,13.46577,-2.176889,,,
CEG (Projet),school,Burkina Faso,BFA,HOTOSM/OSM,13.447231,-2.192161,,,
Ecole primaire,school,Burkina Faso,BFA,HOTOSM/OSM,13.445901,-2.19558,,,
Ecole primaire,school,Burkina Faso,BFA,HOTOSM/OSM,13.429631,-2.115139,,,
Médersa,school,Burkina Faso,BFA,HOTOSM/OSM,13.44077,-2.200425,,,
Ecole primaire Yaoghin,school,Burkina Faso,BFA,HOTOSM/OSM,13.451729,-2.159417,,,
Ecole primaire,school,Burkina Faso,BFA,HOTOSM/OSM,13.406775,-2.156147,,,
Médersa,school,Burkina Faso,BFA,HOTOSM/OSM,13.405889,-2.15861,,,
Ecole primaire,school,Burkina Faso,BFA,HOTOSM/OSM,13.412092,-2.19762,,,
Ecole primaire,school,Burkina Faso,BFA,HOTOSM/OSM,13.410248,-2.19356,,,
Ecole primaire,school,Burkina Faso,BFA,HOTOSM/OSM,13.408392,-2.207871,,,
Médersa (projet),school,Burkina Faso,BFA,HOTOSM/OSM,13.466571,-2.11337,,,
Ecole primaire,school,Burkina Faso,BFA,HOTOSM/OSM,13.438602,-2.126321,,,
Ecole primaire,school,Burkina Faso,BFA,HOTOSM/OSM,13.43857,-2.086257,,,
Ecole primaire,school,Burkina Faso,BFA,HOTOSM/OSM,13.495499,-2.093135,,,
Ecole primaire,school,Burkina Faso,BFA,HOTOSM/OSM,13.410595,-2.219174,,,
CEG,school,Burkina Faso,BFA,HOTOSM/OSM,13.484446,-2.154019,,,
Ecole primaire,school,Burkina Faso,BFA,HOTOSM/OSM,13.490993,-2.143816,,,
Ecole primaire,school,Burkina Faso,BFA,HOTOSM/OSM,13.484947,-2.169666,,,
Médersa,school,Burkina Faso,BFA,HOTOSM/OSM,13.478915,-2.161029,,,
Lycee departemental du Seguenega,school,Burkina Faso,BFA,HOTOSM/OSM,13.429667,-1.949186,,,
Ecole primaire,school,Burkina Faso,BFA,HOTOSM/OSM,13.464051,-2.113668,,,
Ecole primaire de Titao Secteur 4,school,Burkina Faso,BFA,HOTOSM/OSM,13.76402,-2.116052,,,
Ecole primaire de Silia,school,Burkina Faso,BFA,HOTOSM/OSM,13.781366,-2.137222,,,
Lycée municipal de Titao,school,Burkina Faso,BFA,HOTOSM/OSM,13.762883,-2.081059,,,
Ecole primaire de Titao Secteur 2 A,school,Burkina Faso,BFA,HOTOSM/OSM,13.778388,-2.080167,,,
Lycée communal de Titao,school,Burkina Faso,BFA,HOTOSM/OSM,13.780615,-2.073736,,,
Ecole,school,Burkina Faso,BFA,HOTOSM/OSM,13.778363,-2.073546,,,
Ecole primaire de Titao B,school,Burkina Faso,BFA,HOTOSM/OSM,13.771407,-2.068667,,,
Ecole,school,Burkina Faso,BFA,HOTOSM/OSM,13.771993,-2.066752,,,
Ecole,school,Burkina Faso,BFA,HOTOSM/OSM,13.759259,-2.063499,,,
Ecole primaire,school,Burkina Faso,BFA,HOTOSM/OSM,13.764948,-2.061991,,,
Ecole,school,Burkina Faso,BFA,HOTOSM/OSM,13.767305,-2.062701,,,
Centre de formation,school,Burkina Faso,BFA,HOTOSM/OSM,13.771218,-2.071054,,,
Ecole primaire de Yooda,school,Burkina Faso,BFA,HOTOSM/OSM,13.741841,-2.155002,,,
Lycée/CEG,school,Burkina Faso,BFA,HOTOSM/OSM,13.710047,-2.167883,,,
Ecole primaire de You A,school,Burkina Faso,BFA,HOTOSM/OSM,13.704482,-2.144567,,,
Ecole primaire de Youkirba,school,Burkina Faso,BFA,HOTOSM/OSM,13.72982,-2.137757,,,
CEG de You,school,Burkina Faso,BFA,HOTOSM/OSM,13.710353,-2.136999,,,
Ecole primaire de Kélembali,school,Burkina Faso,BFA,HOTOSM/OSM,13.709018,-2.116129,,,
Ecole primaire,school,Burkina Faso,BFA,HOTOSM/OSM,13.688395,-2.084265,,,
Ecole primaire de Somnaga,school,Burkina Faso,BFA,HOTOSM/OSM,13.747958,-2.107744,,,
Ecole primaire de Poukouma-Ramsa,school,Burkina Faso,BFA,HOTOSM/OSM,13.756289,-2.327415,,,
Ecole primaire de Selbonga,school,Burkina Faso,BFA,HOTOSM/OSM,13.750987,-2.023323,,,
Ecole primaire de Boona B,school,Burkina Faso,BFA,HOTOSM/OSM,13.779197,-1.983398,,,
CEG de Boona,school,Burkina Faso,BFA,HOTOSM/OSM,13.774974,-1.963588,,,
Ecole primaire de Boona A,school,Burkina Faso,BFA,HOTOSM/OSM,13.769954,-1.965825,,,
Projet d'école,school,Burkina Faso,BFA,HOTOSM/OSM,13.749783,-1.956146,,,
CEG de Toolo,school,Burkina Faso,BFA,HOTOSM/OSM,13.737703,-1.966543,,,
Ecole primaire de Toolo,school,Burkina Faso,BFA,HOTOSM/OSM,13.74151,-1.964042,,,
Ecole primaire,school,Burkina Faso,BFA,HOTOSM/OSM,13.75703,-1.978334,,,
Ecole primaire de Tifélé,school,Burkina Faso,BFA,HOTOSM/OSM,13.712984,-1.990332,,,
Ecole primaire de Titao A,school,Burkina Faso,BFA,HOTOSM/OSM,13.766414,-2.071694,,,
Ecole primaire de Dougré-Darguéné,school,Burkina Faso,BFA,HOTOSM/OSM,13.71817,-2.056833,,,
Ecole,school,Burkina Faso,BFA,HOTOSM/OSM,13.711555,-2.056597,,,
Ecole,school,Burkina Faso,BFA,HOTOSM/OSM,13.70997,-2.058032,,,
CEG de Dougouri-Ouidi,school,Burkina Faso,BFA,HOTOSM/OSM,13.682279,-2.052558,,,
Ecole primaire de Dougouri-Ouidi,school,Burkina Faso,BFA,HOTOSM/OSM,13.687854,-2.050816,,,
Ecole primaire de Nougpougo,school,Burkina Faso,BFA,HOTOSM/OSM,13.673181,-2.062181,,,
Ecole primaire de Ouindigui B,school,Burkina Faso,BFA,HOTOSM/OSM,13.681718,-1.970875,,,
Ecole primaire de Ouindigui A,school,Burkina Faso,BFA,HOTOSM/OSM,13.678213,-1.96791,,,
Ecole,school,Burkina Faso,BFA,HOTOSM/OSM,13.683658,-1.961714,,,
Ecole franco-arabe,school,Burkina Faso,BFA,HOTOSM/OSM,13.734592,-1.974291,,,
Ecole,school,Burkina Faso,BFA,HOTOSM/OSM,13.767598,-2.073863,,,
Ecole,school,Burkina Faso,BFA,HOTOSM/OSM,13.756818,-2.063528,,,
Ecole primaire,school,Burkina Faso,BFA,HOTOSM/OSM,13.752445,-2.071414,,,
Ecole primaire de Titao Secteur 1,school,Burkina Faso,BFA,HOTOSM/OSM,13.741737,-2.06512,,,
Ecole,school,Burkina Faso,BFA,HOTOSM/OSM,13.746016,-2.061197,,,
Projet d'école,school,Burkina Faso,BFA,HOTOSM/OSM,13.746722,-2.060198,,,
Ecole,school,Burkina Faso,BFA,HOTOSM/OSM,13.758167,-2.048296,,,
CEG de Gondologo,college,Burkina Faso,BFA,HOTOSM/OSM,13.548645,-2.432184,,,
CEG de Gondologo,college,Burkina Faso,BFA,HOTOSM/OSM,13.548893,-2.43268,,,
Complexe scolaire de l'association Bilifou Bilifou,college,Burkina Faso,BFA,HOTOSM/OSM,13.552606,-2.437601,,,
Ecole,school,Burkina Faso,BFA,HOTOSM/OSM,13.552112,-2.432723,,,
Lycée privé Étoile d'or,college,Burkina Faso,BFA,HOTOSM/OSM,13.552499,-2.432808,,,
Lycée privé Étoile d'or,college,Burkina Faso,BFA,HOTOSM/OSM,13.552466,-2.432859,,,
Lycée privé Étoile d'or,college,Burkina Faso,BFA,HOTOSM/OSM,13.552416,-2.43243,,,
Ecole franco-arabe,school,Burkina Faso,BFA,HOTOSM/OSM,13.551463,-2.430689,,,
Ecole,school,Burkina Faso,BFA,HOTOSM/OSM,13.552138,-2.429628,,,
Complexe scolaire de l'association Bilifou Bilifou,college,Burkina Faso,BFA,HOTOSM/OSM,13.5529,-2.437101,,,
Institut supérieur de Gestion de Ouahigouya,college,Burkina Faso,BFA,HOTOSM/OSM,13.563911,-2.431281,,,
Lycée communal,college,Burkina Faso,BFA,HOTOSM/OSM,13.557892,-2.414339,,,
Ecole primaire,school,Burkina Faso,BFA,HOTOSM/OSM,13.533524,-2.352043,,,
Ecole primaire,school,Burkina Faso,BFA,HOTOSM/OSM,13.547016,-2.369387,,,
Ecole primaire de Baporé,school,Burkina Faso,BFA,HOTOSM/OSM,13.568402,-2.353249,,,
Ecole primaire,school,Burkina Faso,BFA,HOTOSM/OSM,13.573565,-2.382853,,,
Ecole primaire,school,Burkina Faso,BFA,HOTOSM/OSM,13.582076,-2.378072,,,
Ecole primaire,school,Burkina Faso,BFA,HOTOSM/OSM,13.576881,-2.404418,,,
ENEP de Ouahigouya,college,Burkina Faso,BFA,HOTOSM/OSM,13.572597,-2.397616,,,
Ecole primaire,school,Burkina Faso,BFA,HOTOSM/OSM,13.548742,-2.432477,,,
CEG/Lycée,school,Burkina Faso,BFA,HOTOSM/OSM,13.568083,-2.401857,,,
Ecole franco-arabe,school,Burkina Faso,BFA,HOTOSM/OSM,13.566839,-2.399932,,,
Centre de formation,college,Burkina Faso,BFA,HOTOSM/OSM,13.567083,-2.39705,,,
Ecole primaire,school,Burkina Faso,BFA,HOTOSM/OSM,13.565331,-2.401818,,,
Ecole primaire,school,Burkina Faso,BFA,HOTOSM/OSM,13.56595,-2.402043,,,
Ecole franco-arabe,school,Burkina Faso,BFA,HOTOSM/OSM,13.558764,-2.404333,,,
Complexe scolaire,school,Burkina Faso,BFA,HOTOSM/OSM,13.569353,-2.392312,,,
Ecole,school,Burkina Faso,BFA,HOTOSM/OSM,13.566465,-2.383733,,,
CEG/Lycée,school,Burkina Faso,BFA,HOTOSM/OSM,13.557313,-2.416135,,,
CEG/Lycée,school,Burkina Faso,BFA,HOTOSM/OSM,13.580458,-2.414018,,,
Ecole primaire,school,Burkina Faso,BFA,HOTOSM/OSM,13.578947,-2.40831,,,
Ecole primaire Wend-Puiré,school,Burkina Faso,BFA,HOTOSM/OSM,13.585544,-2.418807,,,
Ecole primaire,school,Burkina Faso,BFA,HOTOSM/OSM,13.584351,-2.420675,,,
CEG/Lycée,school,Burkina Faso,BFA,HOTOSM/OSM,13.579674,-2.425481,,,
Lycée Yatenga,school,Burkina Faso,BFA,HOTOSM/OSM,13.580792,-2.42491,,,
Lyceé Yadega,school,Burkina Faso,BFA,HOTOSM/OSM,13.580679,-2.424988,,,
Ecole primaire,school,Burkina Faso,BFA,HOTOSM/OSM,13.571672,-2.422257,,,
Complexe scolaire Pella,school,Burkina Faso,BFA,HOTOSM/OSM,13.575188,-2.434363,,,
Ecole primaire Tangazougou,school,Burkina Faso,BFA,HOTOSM/OSM,13.564324,-2.460602,,,
Lycée privé El 13,college,Burkina Faso,BFA,HOTOSM/OSM,13.566684,-2.436246,,,
Lycée Moderne de l'Amitié (NEEED),school,Burkina Faso,BFA,HOTOSM/OSM,13.56555,-2.454629,,,
Ecole,school,Burkina Faso,BFA,HOTOSM/OSM,13.568611,-2.456458,,,
Ecole primaire,school,Burkina Faso,BFA,HOTOSM/OSM,13.560284,-2.44935,,,
Complexe scolaire de l'association Bilifou Bilifou,college,Burkina Faso,BFA,HOTOSM/OSM,13.553219,-2.438118,,,
École primaire de Gondologo,school,Burkina Faso,BFA,HOTOSM/OSM,13.549642,-2.441077,,,
Ecole primaire,school,Burkina Faso,BFA,HOTOSM/OSM,13.54946,-2.44108,,,
École primaire de Gondologo,school,Burkina Faso,BFA,HOTOSM/OSM,13.549249,-2.440998,,,
Collège privé Sainte-Marie,school,Burkina Faso,BFA,HOTOSM/OSM,13.566249,-2.41494,,,
Ecole primaire,school,Burkina Faso,BFA,HOTOSM/OSM,13.565397,-2.428259,,,
Lycée Municipal de Ouahigouya,school,Burkina Faso,BFA,HOTOSM/OSM,13.565943,-2.427311,,,
Lycée Municipal,,Burkina Faso,BFA,HOTOSM/OSM,13.565847,-2.427118,school,,
Lycée Municipal,,Burkina Faso,BFA,HOTOSM/OSM,13.565574,-2.427407,school,,
Lycée Municipal,,Burkina Faso,BFA,HOTOSM/OSM,13.565226,-2.427081,school,,
Lycée Municipal,,Burkina Faso,BFA,HOTOSM/OSM,13.566316,-2.427387,school,,
Ecole primaire,school,Burkina Faso,BFA,HOTOSM/OSM,13.567042,-2.422272,,,
Ecole primaire,school,Burkina Faso,BFA,HOTOSM/OSM,13.564513,-2.40607,,,
Lycée Yamwaya (Antoine Rochet),school,Burkina Faso,BFA,HOTOSM/OSM,13.574097,-2.405979,,,
EPCD,school,Burkina Faso,BFA,HOTOSM/OSM,13.575153,-2.417331,,,
CEG/Lycée,school,Burkina Faso,BFA,HOTOSM/OSM,13.577525,-2.420676,,,
Ecole primaire,school,Burkina Faso,BFA,HOTOSM/OSM,13.566795,-2.429275,,,
Ecole primaire,school,Burkina Faso,BFA,HOTOSM/OSM,13.565362,-2.40908,,,
Ecole primaire,school,Burkina Faso,BFA,HOTOSM/OSM,13.442639,-2.320524,,,
Ecole primaire,school,Burkina Faso,BFA,HOTOSM/OSM,13.430843,-2.276886,,,
Ecole primaire,school,Burkina Faso,BFA,HOTOSM/OSM,13.460531,-2.274409,,,
CEG,school,Burkina Faso,BFA,HOTOSM/OSM,13.469403,-2.300947,,,
Ecole primaire,school,Burkina Faso,BFA,HOTOSM/OSM,13.465257,-2.31627,,,
Complexe scolaire,school,Burkina Faso,BFA,HOTOSM/OSM,13.555727,-2.409878,,,
Ecole primaire,school,Burkina Faso,BFA,HOTOSM/OSM,13.473563,-2.30808,,,
Ecole primaire Yanga,school,Burkina Faso,BFA,HOTOSM/OSM,13.484656,-2.330588,,,
Collège communal,school,Burkina Faso,BFA,HOTOSM/OSM,13.488844,-2.330982,,,
Ecole primaire,school,Burkina Faso,BFA,HOTOSM/OSM,13.489945,-2.321406,,,
Ecole primaire,school,Burkina Faso,BFA,HOTOSM/OSM,13.49366,-2.298562,,,
Ecole primaire,school,Burkina Faso,BFA,HOTOSM/OSM,13.435012,-2.221816,,,
CEG,school,Burkina Faso,BFA,HOTOSM/OSM,13.444771,-2.248238,,,
Ecole primaire,school,Burkina Faso,BFA,HOTOSM/OSM,13.451624,-2.248323,,,
Ecole primaire,school,Burkina Faso,BFA,HOTOSM/OSM,13.407443,-2.259474,,,
Ecole primaire,school,Burkina Faso,BFA,HOTOSM/OSM,13.420355,-2.301874,,,
Ecole primaire,school,Burkina Faso,BFA,HOTOSM/OSM,13.420376,-2.304195,,,
CEG,school,Burkina Faso,BFA,HOTOSM/OSM,13.41702,-2.302115,,,
Médersa,school,Burkina Faso,BFA,HOTOSM/OSM,13.415787,-2.308674,,,
Ecole primaire,school,Burkina Faso,BFA,HOTOSM/OSM,13.416971,-2.311351,,,
Ecole primaire Ouédeancin B,school,Burkina Faso,BFA,HOTOSM/OSM,13.416979,-2.317992,,,
Ecole primaire,school,Burkina Faso,BFA,HOTOSM/OSM,13.416409,-2.335331,,,
CEG,school,Burkina Faso,BFA,HOTOSM/OSM,13.499968,-2.401666,,,
Ecole primaire Somiaga A,school,Burkina Faso,BFA,HOTOSM/OSM,13.504358,-2.402048,,,
Ecole primaire Somiaga B,school,Burkina Faso,BFA,HOTOSM/OSM,13.504555,-2.400981,,,
Ecole franco-arabe,school,Burkina Faso,BFA,HOTOSM/OSM,13.514537,-2.39543,,,
CEG de Somiaga,school,Burkina Faso,BFA,HOTOSM/OSM,13.512601,-2.400701,,,
Complexe scolaire,school,Burkina Faso,BFA,HOTOSM/OSM,13.517697,-2.394955,,,
Ecole,school,Burkina Faso,BFA,HOTOSM/OSM,13.533948,-2.393264,,,
Ecole primaire,school,Burkina Faso,BFA,HOTOSM/OSM,13.499044,-2.265294,,,
Ecple (Projet),school,Burkina Faso,BFA,HOTOSM/OSM,13.536987,-2.39124,,,
Ecole primaire,school,Burkina Faso,BFA,HOTOSM/OSM,13.540965,-2.388738,,,
Lycée/CEG,school,Burkina Faso,BFA,HOTOSM/OSM,13.538742,-2.404152,,,
Ecole primaire,school,Burkina Faso,BFA,HOTOSM/OSM,13.539209,-2.378773,,,
Ecole primaire du Secteur 15,school,Burkina Faso,BFA,HOTOSM/OSM,13.545853,-2.368479,,,
Ecole primaire,school,Burkina Faso,BFA,HOTOSM/OSM,13.547008,-2.38634,,,
Complexe scolaire,school,Burkina Faso,BFA,HOTOSM/OSM,13.550977,-2.411758,,,
Ecole primaire,school,Burkina Faso,BFA,HOTOSM/OSM,13.45826,-2.245106,,,
CEG,school,Burkina Faso,BFA,HOTOSM/OSM,13.457261,-2.24418,,,
Médersa,school,Burkina Faso,BFA,HOTOSM/OSM,13.485689,-2.233364,,,
Ecole primaire Ouidi,school,Burkina Faso,BFA,HOTOSM/OSM,13.489118,-2.235281,,,
Ecole primaire de Zekin,school,Burkina Faso,BFA,HOTOSM/OSM,13.564671,-2.330154,,,
CEG,school,Burkina Faso,BFA,HOTOSM/OSM,13.53362,-2.389282,,,
Ecole primaire Nakombgo,school,Burkina Faso,BFA,HOTOSM/OSM,13.543209,-2.329995,,,
Ecole primaire,school,Burkina Faso,BFA,HOTOSM/OSM,13.500043,-2.344972,,,
Ecole primaire,school,Burkina Faso,BFA,HOTOSM/OSM,13.501223,-2.374074,,,
Ecole franco-arabe,school,Burkina Faso,BFA,HOTOSM/OSM,13.540491,-2.328878,,,
Ecole franco-arabe,school,Burkina Faso,BFA,HOTOSM/OSM,13.487957,-2.513574,,,
Ecole primaire,school,Burkina Faso,BFA,HOTOSM/OSM,13.478815,-2.515622,,,
CEG de Sissamba,school,Burkina Faso,BFA,HOTOSM/OSM,13.510397,-2.472629,,,
Ecple primaire de Soubo,school,Burkina Faso,BFA,HOTOSM/OSM,13.501852,-2.48955,,,
Ecple primaire de Pirgo B,school,Burkina Faso,BFA,HOTOSM/OSM,13.515608,-2.47159,,,
Ecole primaire,school,Burkina Faso,BFA,HOTOSM/OSM,13.526558,-2.503878,,,
Ecole primaire de Gansbanko,school,Burkina Faso,BFA,HOTOSM/OSM,13.777198,-2.258622,,,
Ecple primaire de Rissi,school,Burkina Faso,BFA,HOTOSM/OSM,13.524386,-2.509882,,,
Ecole primaire de Tangwéogo,school,Burkina Faso,BFA,HOTOSM/OSM,13.54058,-2.583941,,,
Lycée/CEG municipal de Tangaye,school,Burkina Faso,BFA,HOTOSM/OSM,13.540799,-2.560811,,,
CEG de Tangaye,school,Burkina Faso,BFA,HOTOSM/OSM,13.540819,-2.53803,,,
Ecole primaire,school,Burkina Faso,BFA,HOTOSM/OSM,13.535586,-2.544837,,,
Ecole primaire de Tangaye A,school,Burkina Faso,BFA,HOTOSM/OSM,13.5424,-2.544991,,,
Ecole primaire de Rallo,school,Burkina Faso,BFA,HOTOSM/OSM,13.482842,-2.515174,,,
Centre d'alphabétisation,school,Burkina Faso,BFA,HOTOSM/OSM,13.430629,-2.56825,,,
École primaire de Téonsgo,school,Burkina Faso,BFA,HOTOSM/OSM,13.438053,-2.557448,,,
Ecole primaire de Lehe,school,Burkina Faso,BFA,HOTOSM/OSM,13.44448,-2.537226,,,
Ecole franco-arabe,school,Burkina Faso,BFA,HOTOSM/OSM,13.420173,-2.506251,,,
Ecole primaire de Ninga,school,Burkina Faso,BFA,HOTOSM/OSM,13.421971,-2.514458,,,
CEG de Ninga,school,Burkina Faso,BFA,HOTOSM/OSM,13.427443,-2.510464,,,
Ecole primaire de Mopéléguin,school,Burkina Faso,BFA,HOTOSM/OSM,13.446887,-2.48464,,,
Ecole primaire de Lilkana,school,Burkina Faso,BFA,HOTOSM/OSM,13.408966,-2.486986,,,
CEG de Yalka,school,Burkina Faso,BFA,HOTOSM/OSM,13.44302,-2.494904,,,
Ecole primaire de Yalka,school,Burkina Faso,BFA,HOTOSM/OSM,13.444839,-2.496422,,,
Ecole primaire de Bissigaye B,school,Burkina Faso,BFA,HOTOSM/OSM,13.588542,-2.483842,,,
Ecole primaire de Bissigaye A,school,Burkina Faso,BFA,HOTOSM/OSM,13.589474,-2.476202,,,
Ecole primaire de Komsila,school,Burkina Faso,BFA,HOTOSM/OSM,13.613325,-2.481527,,,
Ecole primaire de Bronakouli,school,Burkina Faso,BFA,HOTOSM/OSM,13.616511,-2.496227,,,
Ecole primaire de Bassaouassa,school,Burkina Faso,BFA,HOTOSM/OSM,13.621748,-2.508603,,,
CEG de Komsila,school,Burkina Faso,BFA,HOTOSM/OSM,13.630295,-2.482586,,,
Ecole primaire Rawokyiri,school,Burkina Faso,BFA,HOTOSM/OSM,13.663791,-2.49445,,,
Ecole primaire de Bolongo,school,Burkina Faso,BFA,HOTOSM/OSM,13.659452,-2.480127,,,
,drinking_water,Burkina Faso,BFA,HOTOSM/OSM,13.657468,-2.475785,school,,
Ecole primaire de Zamioro,school,Burkina Faso,BFA,HOTOSM/OSM,13.665668,-2.477071,,,
Ecole primaire de Toéssin,school,Burkina Faso,BFA,HOTOSM/OSM,13.635998,-2.476897,,,
Ecole primaire de Gosséré A,school,Burkina Faso,BFA,HOTOSM/OSM,13.588608,-2.575567,,,
Ecole primaire de Namsiguiia,school,Burkina Faso,BFA,HOTOSM/OSM,13.590772,-2.567064,,,
Ecole primaire de Bonsomnoré,school,Burkina Faso,BFA,HOTOSM/OSM,13.591273,-2.536395,,,
Ecole primaire de Nimpouya,school,Burkina Faso,BFA,HOTOSM/OSM,13.546984,-2.526837,,,
Ecole primaire de Zougouna,school,Burkina Faso,BFA,HOTOSM/OSM,13.562264,-2.516639,,,
Ecole primaire de Behm,school,Burkina Faso,BFA,HOTOSM/OSM,13.566365,-2.518109,,,
Projet d'école,school,Burkina Faso,BFA,HOTOSM/OSM,13.568685,-2.519168,,,
Ecole primaire de Kouba,school,Burkina Faso,BFA,HOTOSM/OSM,13.566593,-2.505036,,,
Ecole primaire de Benbela,school,Burkina Faso,BFA,HOTOSM/OSM,13.553322,-2.487267,,,
Ecole primaire,school,Burkina Faso,BFA,HOTOSM/OSM,13.559472,-2.476517,,,
Ecole primaire,school,Burkina Faso,BFA,HOTOSM/OSM,13.564082,-2.478954,,,
Ecole primaire de Sénokayel,school,Burkina Faso,BFA,HOTOSM/OSM,13.700529,-2.783741,,,
Ecole primaire Bokinda,school,Burkina Faso,BFA,HOTOSM/OSM,13.680565,-2.815697,,,
Ecole primaire de Boukéré,school,Burkina Faso,BFA,HOTOSM/OSM,13.669582,-2.754532,,,
Ecole primaire Boulbéré,school,Burkina Faso,BFA,HOTOSM/OSM,13.617694,-2.759062,,,
Ecole primaire de Douma,school,Burkina Faso,BFA,HOTOSM/OSM,13.608747,-2.757652,,,
CEG de Douma,school,Burkina Faso,BFA,HOTOSM/OSM,13.607494,-2.753835,,,
Ecole primaire Mossin,school,Burkina Faso,BFA,HOTOSM/OSM,13.616242,-2.737406,,,
Ecole primaire de Kolkoom,school,Burkina Faso,BFA,HOTOSM/OSM,13.598121,-2.744257,,,
Ecole primaire de Koro,school,Burkina Faso,BFA,HOTOSM/OSM,13.455,-2.520139,,,
Ecole primaire de Gonna,school,Burkina Faso,BFA,HOTOSM/OSM,13.612108,-2.863148,,,
Ecole primaire de Yansa,school,Burkina Faso,BFA,HOTOSM/OSM,13.604967,-2.921671,,,
Ecole primaire de Wende Yida Yiri,school,Burkina Faso,BFA,HOTOSM/OSM,13.615338,-2.904867,,,
Ecole primaire de Tongméné,school,Burkina Faso,BFA,HOTOSM/OSM,13.554473,-2.714151,,,
Ecole primaire,school,Burkina Faso,BFA,HOTOSM/OSM,13.57975,-2.692392,,,
Ecole franco-arabe,school,Burkina Faso,BFA,HOTOSM/OSM,13.575375,-2.664295,,,
Ecole primaire de Birgondogo,school,Burkina Faso,BFA,HOTOSM/OSM,13.633019,-2.858132,,,
Ecole primaire de Touri,school,Burkina Faso,BFA,HOTOSM/OSM,13.399279,-2.643025,,,
Lycée communal de Tougan,school,Burkina Faso,BFA,HOTOSM/OSM,13.074876,-3.083313,,,
Lycée Provencial de Tougan,school,Burkina Faso,BFA,HOTOSM/OSM,13.069261,-3.070083,,,
EPP DOUA DRABO,school,Burkina Faso,BFA,HOTOSM/OSM,13.075725,-3.073439,,,
École Catholique,school,Burkina Faso,BFA,HOTOSM/OSM,13.074013,-3.065329,,,
Ecole primaire de Yalka,school,Burkina Faso,BFA,HOTOSM/OSM,13.468293,-2.58689,,,
Ecole franco-arabe,school,Burkina Faso,BFA,HOTOSM/OSM,13.452505,-2.594595,,,
Ecole primaire de Nango-Yarcé,school,Burkina Faso,BFA,HOTOSM/OSM,13.449953,-2.597107,,,
École A,,Burkina Faso,BFA,HOTOSM/OSM,13.451799,-2.589406,school,,
Ecole primaire de Somlawa,school,Burkina Faso,BFA,HOTOSM/OSM,13.57637,-2.635767,,,
École primaire de Nango-Foulcé A,school,Burkina Faso,BFA,HOTOSM/OSM,13.451616,-2.589493,,,
École B,,Burkina Faso,BFA,HOTOSM/OSM,13.451393,-2.589561,school,,
CEG de Nango-Yarcé,school,Burkina Faso,BFA,HOTOSM/OSM,13.439232,-2.592413,,,
Centre d'alphabétisation,school,Burkina Faso,BFA,HOTOSM/OSM,13.409027,-2.592497,,,
Ecole secondaire Naba-Tissé,school,Burkina Faso,BFA,HOTOSM/OSM,13.408986,-2.586433,,,
Ecole primaire de Ramessé,school,Burkina Faso,BFA,HOTOSM/OSM,13.456528,-2.483921,,,
Ecole primaire d'Ippo,school,Burkina Faso,BFA,HOTOSM/OSM,13.460019,-2.474982,,,
Ecole primaire de Kébakoro,school,Burkina Faso,BFA,HOTOSM/OSM,13.567977,-2.65838,,,
Ecole primaire de Boundoukamba,school,Burkina Faso,BFA,HOTOSM/OSM,13.542048,-2.619161,,,
Ecole primaire,school,Burkina Faso,BFA,HOTOSM/OSM,13.513344,-2.637943,,,
Ecole primaire de Tougué-Yarsé,school,Burkina Faso,BFA,HOTOSM/OSM,13.508812,-2.661894,,,
Ecole primaire de Yaoua,school,Burkina Faso,BFA,HOTOSM/OSM,13.495448,-2.566166,,,
Ecole primaire de Tougué-Mossi,school,Burkina Faso,BFA,HOTOSM/OSM,13.526284,-2.67383,,,
CEG de Tougué-Mossi,school,Burkina Faso,BFA,HOTOSM/OSM,13.530895,-2.668141,,,
Ecole primaire de Tangari,school,Burkina Faso,BFA,HOTOSM/OSM,13.534807,-2.70898,,,
Ecole franco-arabe,school,Burkina Faso,BFA,HOTOSM/OSM,13.477378,-2.596266,,,
Ecole primaire de Méra,school,Burkina Faso,BFA,HOTOSM/OSM,13.494052,-2.56269,,,
Ecole primaire,school,Burkina Faso,BFA,HOTOSM/OSM,13.579173,-2.671872,,,
Ecole primaire de Boulounsi,school,Burkina Faso,BFA,HOTOSM/OSM,13.427536,-2.569777,,,
Ecole franco-arabe,school,Burkina Faso,BFA,HOTOSM/OSM,13.430475,-2.568222,,,
Ecole franco-arabe,school,Burkina Faso,BFA,HOTOSM/OSM,13.766123,-2.348892,,,
Ecole primaire de Tanvoussé-Peulh,school,Burkina Faso,BFA,HOTOSM/OSM,13.728271,-2.408397,,,
Ecole primaire de Séné-Todiam,school,Burkina Faso,BFA,HOTOSM/OSM,13.725418,-2.459823,,,
Ecole primaire Nong-Nééré,school,Burkina Faso,BFA,HOTOSM/OSM,13.677415,-2.42356,,,
Ecole primaire de Cissin,school,Burkina Faso,BFA,HOTOSM/OSM,13.685865,-2.423667,,,
Ecole primaire de Binda,school,Burkina Faso,BFA,HOTOSM/OSM,13.652135,-2.450128,,,
Ecole,school,Burkina Faso,BFA,HOTOSM/OSM,13.617226,-2.454697,,,
Ecole primaire,school,Burkina Faso,BFA,HOTOSM/OSM,13.616777,-2.450669,,,
CEG de Bango,school,Burkina Faso,BFA,HOTOSM/OSM,13.661271,-2.533003,,,
Ecole primaire de Ronga,school,Burkina Faso,BFA,HOTOSM/OSM,13.73068,-2.395105,,,
Ecole primaire,school,Burkina Faso,BFA,HOTOSM/OSM,13.610541,-2.426336,,,
Lycée de Bogoya,school,Burkina Faso,BFA,HOTOSM/OSM,13.62333,-2.413071,,,
Ecole primaire,school,Burkina Faso,BFA,HOTOSM/OSM,13.632755,-2.422979,,,
Ecole franco-arabe,school,Burkina Faso,BFA,HOTOSM/OSM,13.636447,-2.423961,,,
Ecole primaire Tanlili,school,Burkina Faso,BFA,HOTOSM/OSM,13.636284,-2.413827,,,
Ecole primaire de Kouglaré,school,Burkina Faso,BFA,HOTOSM/OSM,13.780219,-2.376944,,,
Ecole primaire de Dinguiri,school,Burkina Faso,BFA,HOTOSM/OSM,13.770757,-2.365144,,,
Ecole primaire de Koubi-Todiam,school,Burkina Faso,BFA,HOTOSM/OSM,13.780312,-2.348953,,,
Ecole primaire Kangré-Poré,school,Burkina Faso,BFA,HOTOSM/OSM,13.766001,-2.345269,,,
CEG de Dinguiri,school,Burkina Faso,BFA,HOTOSM/OSM,13.759911,-2.354064,,,
Ecole franco-arabe,school,Burkina Faso,BFA,HOTOSM/OSM,13.770021,-2.36053,,,
CEG de Ronga,school,Burkina Faso,BFA,HOTOSM/OSM,13.729436,-2.399428,,,
Ecole primaire de Karma,school,Burkina Faso,BFA,HOTOSM/OSM,13.71784,-2.33956,,,
Ecole primaire,school,Burkina Faso,BFA,HOTOSM/OSM,13.696734,-2.41647,,,
Ecole primaire,school,Burkina Faso,BFA,HOTOSM/OSM,13.70212,-2.431263,,,
CEG de Sodin,school,Burkina Faso,BFA,HOTOSM/OSM,13.708792,-2.427828,,,
Ecole primaire,school,Burkina Faso,BFA,HOTOSM/OSM,13.672534,-2.370728,,,
Ecole primaire,school,Burkina Faso,BFA,HOTOSM/OSM,13.667865,-2.37112,,,
Lycée/CEG,school,Burkina Faso,BFA,HOTOSM/OSM,13.671855,-2.347485,,,
Ecole primaire Mossin,school,Burkina Faso,BFA,HOTOSM/OSM,13.670552,-2.345688,,,
Ecole primaire,school,Burkina Faso,BFA,HOTOSM/OSM,13.673675,-2.334019,,,
Ecole primaire,school,Burkina Faso,BFA,HOTOSM/OSM,13.670471,-2.339103,,,
Ecole Madersa de Karma Franco-Arabe,school,Burkina Faso,BFA,HOTOSM/OSM,13.718307,-2.335442,,,
Madarsa,school,Burkina Faso,BFA,HOTOSM/OSM,13.718331,-2.338684,,,
Ecole primaire de Lemnogo-Mossi,school,Burkina Faso,BFA,HOTOSM/OSM,13.730619,-2.313531,,,
CEG de Ramdolla,school,Burkina Faso,BFA,HOTOSM/OSM,13.750874,-2.300005,,,
Ecole primaire Ramdolla-Mossi,school,Burkina Faso,BFA,HOTOSM/OSM,13.74749,-2.302057,,,
Ecole primaire de Kerga,school,Burkina Faso,BFA,HOTOSM/OSM,13.781252,-2.317788,,,
Ecole franco-arabe,school,Burkina Faso,BFA,HOTOSM/OSM,13.778293,-2.317856,,,
Ecole primaire,school,Burkina Faso,BFA,HOTOSM/OSM,13.770479,-2.303265,,,
Ecole primaire de Ramdolla-Peulh,school,Burkina Faso,BFA,HOTOSM/OSM,13.767285,-2.284641,,,
CEG de Bogoya,school,Burkina Faso,BFA,HOTOSM/OSM,13.637238,-2.412683,,,
Ecole primaire,school,Burkina Faso,BFA,HOTOSM/OSM,13.637645,-2.402284,,,
Ecole primaire de Liligomdé,school,Burkina Faso,BFA,HOTOSM/OSM,13.611171,-2.376203,,,
Ecole primaire Zinkin,school,Burkina Faso,BFA,HOTOSM/OSM,13.632177,-2.356055,,,
Ecole primaire de Rikou,school,Burkina Faso,BFA,HOTOSM/OSM,13.637844,-2.363643,,,
Ecole franco-arabe,school,Burkina Faso,BFA,HOTOSM/OSM,13.638266,-2.356538,,,
CEG de Rikou,school,Burkina Faso,BFA,HOTOSM/OSM,13.632036,-2.352563,,,
Ecole primaire,school,Burkina Faso,BFA,HOTOSM/OSM,13.665529,-2.3767,,,
Ecole primaire Bangarin,school,Burkina Faso,BFA,HOTOSM/OSM,13.641868,-2.344693,,,
Ecole primaire,school,Burkina Faso,BFA,HOTOSM/OSM,13.655582,-2.401541,,,
CEG de Youba,school,Burkina Faso,BFA,HOTOSM/OSM,13.661013,-2.377988,,,
Ecole primaire,school,Burkina Faso,BFA,HOTOSM/OSM,13.66729,-2.375449,,,
Ecole primaire de Pogoro-Silmimossi,school,Burkina Faso,BFA,HOTOSM/OSM,13.771379,-2.413173,,,
Ecole primaire de Bouli A,school,Burkina Faso,BFA,HOTOSM/OSM,13.665389,-2.718985,,,
Ecole primaire de Goko,school,Burkina Faso,BFA,HOTOSM/OSM,13.680192,-2.675584,,,
Ecole primaire de Ouoh-Kanga,school,Burkina Faso,BFA,HOTOSM/OSM,13.643151,-2.665338,,,
Ecole primaire de Pélla,school,Burkina Faso,BFA,HOTOSM/OSM,13.649936,-2.64734,,,
Ecole franco-arabe,school,Burkina Faso,BFA,HOTOSM/OSM,13.646605,-2.620505,,,
Ecole primaire,school,Burkina Faso,BFA,HOTOSM/OSM,13.731621,-2.662243,,,
Ecole franco-arabe,school,Burkina Faso,BFA,HOTOSM/OSM,13.73451,-2.729751,,,
CEG de Kalo,school,Burkina Faso,BFA,HOTOSM/OSM,13.727499,-2.679031,,,
Ecole primaire Ouedransé,school,Burkina Faso,BFA,HOTOSM/OSM,13.729668,-2.670603,,,
Ecole primaire Wouro-Narain,school,Burkina Faso,BFA,HOTOSM/OSM,13.665118,-2.539797,,,
Ecole primaire de Loubré,school,Burkina Faso,BFA,HOTOSM/OSM,13.632678,-2.598865,,,
Ecole primaire,school,Burkina Faso,BFA,HOTOSM/OSM,13.598639,-2.54289,,,
CEG de Namsiguia,school,Burkina Faso,BFA,HOTOSM/OSM,13.598575,-2.557701,,,
Ecole primaire de Goutoula,school,Burkina Faso,BFA,HOTOSM/OSM,13.610914,-2.577716,,,
Ecole primaire de Rassandogo,school,Burkina Faso,BFA,HOTOSM/OSM,13.617991,-2.621296,,,
Ecole primaire de Touya,school,Burkina Faso,BFA,HOTOSM/OSM,13.646843,-2.618492,,,
CEG de Pella-Tibitiguia,school,Burkina Faso,BFA,HOTOSM/OSM,13.618395,-2.641103,,,
Ecole primaire de Keleguérima,school,Burkina Faso,BFA,HOTOSM/OSM,13.629946,-2.636869,,,
Ecole franco-arabe,school,Burkina Faso,BFA,HOTOSM/OSM,13.615066,-2.732004,,,
Ecole primaire de Ouoh-Bilo,school,Burkina Faso,BFA,HOTOSM/OSM,13.628322,-2.6795,,,
Ecole primaire,school,Burkina Faso,BFA,HOTOSM/OSM,13.644327,-2.694283,,,
Ecole primaire de Bouli B,school,Burkina Faso,BFA,HOTOSM/OSM,13.64937,-2.719159,,,
Ecole franco-arabe,school,Burkina Faso,BFA,HOTOSM/OSM,13.663207,-2.71987,,,
Ecole primaire de Pella-Tibitiguia,school,Burkina Faso,BFA,HOTOSM/OSM,13.621086,-2.641292,,,
CEG de Soulou,school,Burkina Faso,BFA,HOTOSM/OSM,13.758536,-2.473876,,,
Ecole primaire de Saya-Mossi,school,Burkina Faso,BFA,HOTOSM/OSM,13.780042,-2.497746,,,
Ecole franco-arabe,school,Burkina Faso,BFA,HOTOSM/OSM,13.764632,-2.472848,,,
Ecole primaire Toguin,school,Burkina Faso,BFA,HOTOSM/OSM,13.769041,-2.474937,,,
Ecole franco-arabe,school,Burkina Faso,BFA,HOTOSM/OSM,13.758484,-2.42756,,,
Ecole primaire de Pogoro-Mossi,school,Burkina Faso,BFA,HOTOSM/OSM,13.755981,-2.423345,,,
CEG de Tanvoussé-Mossi,school,Burkina Faso,BFA,HOTOSM/OSM,13.744909,-2.419703,,,
Ecole primaire de Tanvoussé-Mossi,school,Burkina Faso,BFA,HOTOSM/OSM,13.747182,-2.420089,,,
Ecole franco-arabe,school,Burkina Faso,BFA,HOTOSM/OSM,13.748836,-2.418467,,,
Ecole primaire de Lobré,school,Burkina Faso,BFA,HOTOSM/OSM,13.73655,-2.727203,,,
Ecole primaire,school,Burkina Faso,BFA,HOTOSM/OSM,13.760478,-2.727501,,,
Ecole primaire Doré-Saka,school,Burkina Faso,BFA,HOTOSM/OSM,13.772938,-2.575315,,,
Ecole primaire Barrai,school,Burkina Faso,BFA,HOTOSM/OSM,13.714522,-2.582341,,,
Ecole primaire de Bouro,school,Burkina Faso,BFA,HOTOSM/OSM,13.692042,-2.587076,,,
Ecole primaire de Noden,school,Burkina Faso,BFA,HOTOSM/OSM,13.732828,-2.56838,,,
Ecole primaire Rapoya,school,Burkina Faso,BFA,HOTOSM/OSM,13.713405,-2.524814,,,
CEG de Rim,school,Burkina Faso,BFA,HOTOSM/OSM,13.704933,-2.526518,,,
Ecole primaire de Mouni,school,Burkina Faso,BFA,HOTOSM/OSM,13.691179,-2.512516,,,
Ecole franco-arabe,school,Burkina Faso,BFA,HOTOSM/OSM,13.726575,-2.492771,,,
Ecole primaire de Silga,school,Burkina Faso,BFA,HOTOSM/OSM,13.72695,-2.496442,,,
Ecole primaire Soulmogo,school,Burkina Faso,BFA,HOTOSM/OSM,13.758413,-2.473459,,,
Ecole primaire de Bouli,school,Burkina Faso,BFA,HOTOSM/OSM,11.824927,-1.861082,,,
Ecole primaire de Tayalo,school,Burkina Faso,BFA,HOTOSM/OSM,11.84363,-1.88056,,,
Ecole primaire de Lorou,school,Burkina Faso,BFA,HOTOSM/OSM,11.834109,-1.942566,,,
Ecole primaire de Kou,school,Burkina Faso,BFA,HOTOSM/OSM,11.731664,-1.920637,,,
Ecole primaire,school,Burkina Faso,BFA,HOTOSM/OSM,11.755063,-1.84736,,,
Complexe scolaire Wend-kuuni Nooma,school,Burkina Faso,BFA,HOTOSM/OSM,12.31211,-1.614716,,,
Ecole primaire de Bakata,school,Burkina Faso,BFA,HOTOSM/OSM,11.769299,-1.845445,,,
Ecole,school,Burkina Faso,BFA,HOTOSM/OSM,11.769768,-1.837194,,,
Ecole franco-arabe,school,Burkina Faso,BFA,HOTOSM/OSM,11.768705,-1.849888,,,
Ecole primaire Bakata B,school,Burkina Faso,BFA,HOTOSM/OSM,11.779612,-1.849258,,,
Ecole primaire,school,Burkina Faso,BFA,HOTOSM/OSM,11.741101,-1.739805,,,
Ecole primaire de Yalou-Gouroungo,school,Burkina Faso,BFA,HOTOSM/OSM,11.957709,-1.918128,,,
Ecole primaire de Poa,school,Burkina Faso,BFA,HOTOSM/OSM,11.962892,-1.885486,,,
Ecole,school,Burkina Faso,BFA,HOTOSM/OSM,11.960467,-1.890908,,,
Ecole primaire,school,Burkina Faso,BFA,HOTOSM/OSM,11.946674,-1.831001,,,
Ecole primaire de Kouboulou,school,Burkina Faso,BFA,HOTOSM/OSM,11.90018,-1.862203,,,
Ecole primaire de Boulé-Gala,school,Burkina Faso,BFA,HOTOSM/OSM,11.921318,-1.84903,,,
Ecole,school,Burkina Faso,BFA,HOTOSM/OSM,11.914665,-1.855359,,,
Ecole primaire de Boulé-Daboré,school,Burkina Faso,BFA,HOTOSM/OSM,11.901281,-1.894557,,,
Ecole,school,Burkina Faso,BFA,HOTOSM/OSM,11.946115,-1.938721,,,
Ecole primaire de Binyéné,school,Burkina Faso,BFA,HOTOSM/OSM,11.913603,-1.943924,,,
Ecole,school,Burkina Faso,BFA,HOTOSM/OSM,11.858254,-1.888256,,,
Ecole primaire de Payiri,school,Burkina Faso,BFA,HOTOSM/OSM,11.843262,-1.825929,,,
Ecole primaire,school,Burkina Faso,BFA,HOTOSM/OSM,11.82982,-1.565958,,,
Ecole,school,Burkina Faso,BFA,HOTOSM/OSM,11.842297,-1.552793,,,
Ecole primaire,school,Burkina Faso,BFA,HOTOSM/OSM,11.848744,-1.556471,,,
CEG,school,Burkina Faso,BFA,HOTOSM/OSM,11.852131,-1.558724,,,
Ecole primaire,school,Burkina Faso,BFA,HOTOSM/OSM,11.87739,-1.523515,,,
CEG,school,Burkina Faso,BFA,HOTOSM/OSM,11.873565,-1.511334,,,
CEG,school,Burkina Faso,BFA,HOTOSM/OSM,11.887949,-1.422941,,,
Ecole primaire Koakin,school,Burkina Faso,BFA,HOTOSM/OSM,11.888013,-1.424328,,,
Ecole primaire,school,Burkina Faso,BFA,HOTOSM/OSM,11.874307,-1.430295,,,
Centre alpha,school,Burkina Faso,BFA,HOTOSM/OSM,11.874833,-1.466387,,,
Ecole primaire de Sobaka,school,Burkina Faso,BFA,HOTOSM/OSM,11.76837,-1.716068,,,
Médersa,school,Burkina Faso,BFA,HOTOSM/OSM,11.819263,-1.551328,,,
Ecole primaire,school,Burkina Faso,BFA,HOTOSM/OSM,11.799219,-1.720676,,,
Ecole primaire de Kinkirsgogo A,school,Burkina Faso,BFA,HOTOSM/OSM,11.833602,-1.743048,,,
CEG de Kinkirsgogo,school,Burkina Faso,BFA,HOTOSM/OSM,11.832335,-1.741977,,,
Ecole primaire,school,Burkina Faso,BFA,HOTOSM/OSM,11.825455,-1.740287,,,
Ecole,school,Burkina Faso,BFA,HOTOSM/OSM,11.770984,-1.835846,,,
Ecole primaire Tingsobgo,school,Burkina Faso,BFA,HOTOSM/OSM,11.863322,-1.513752,,,
Ecole primaire,school,Burkina Faso,BFA,HOTOSM/OSM,11.878992,-1.499919,,,
Abandonné,,Burkina Faso,BFA,HOTOSM/OSM,11.878729,-1.499943,school,,
Ecole primaire,school,Burkina Faso,BFA,HOTOSM/OSM,11.891424,-1.445601,,,
Ecole primaire,school,Burkina Faso,BFA,HOTOSM/OSM,11.84618,-1.785985,,,
Ecole primaire de Kinkirsgogo B,school,Burkina Faso,BFA,HOTOSM/OSM,11.833212,-1.759302,,,
Préscolaire,kindergarten,Burkina Faso,BFA,HOTOSM/OSM,11.836794,-1.750762,,,
Ecole primaire,school,Burkina Faso,BFA,HOTOSM/OSM,11.864167,-1.759645,,,
Ecole primaire de Kamboinsé,school,Burkina Faso,BFA,HOTOSM/OSM,11.853577,-1.716811,,,
Ecole franco-arabe,school,Burkina Faso,BFA,HOTOSM/OSM,11.795512,-1.719724,,,
Ecole primaire de Toéghin-Peulh,school,Burkina Faso,BFA,HOTOSM/OSM,12.079673,-1.703059,,,
Ecole primaire de Kossoghin,school,Burkina Faso,BFA,HOTOSM/OSM,12.073132,-1.732415,,,
CEG de Penguen,school,Burkina Faso,BFA,HOTOSM/OSM,12.06083,-1.813525,,,
Ecole primaire,school,Burkina Faso,BFA,HOTOSM/OSM,11.94132,-1.559343,,,
Ecole primaire,school,Burkina Faso,BFA,HOTOSM/OSM,11.990957,-1.552186,,,
Centre permanent d'alphabétisation et de formation de PAZOETFOM,school,Burkina Faso,BFA,HOTOSM/OSM,11.949271,-1.629113,,,
École de Boulsin,school,Burkina Faso,BFA,HOTOSM/OSM,11.963252,-1.620292,,,
Ecole primaire de Basnéré,school,Burkina Faso,BFA,HOTOSM/OSM,11.910247,-1.787522,,,
Ecole primaire,school,Burkina Faso,BFA,HOTOSM/OSM,11.952359,-1.720836,,,
Ecole primaire de Bareyiri,school,Burkina Faso,BFA,HOTOSM/OSM,12.016826,-1.880042,,,
Ecole primaire de Lado,school,Burkina Faso,BFA,HOTOSM/OSM,11.965875,-1.729361,,,
Ecole primaire,school,Burkina Faso,BFA,HOTOSM/OSM,11.919143,-1.428844,,,
Ecole primaire,school,Burkina Faso,BFA,HOTOSM/OSM,11.920102,-1.516055,,,
CEG,school,Burkina Faso,BFA,HOTOSM/OSM,11.942362,-1.546236,,,
Ecole primaire,school,Burkina Faso,BFA,HOTOSM/OSM,11.902638,-1.562296,,,
Ecole primaire,school,Burkina Faso,BFA,HOTOSM/OSM,11.919037,-1.572904,,,
CEG,school,Burkina Faso,BFA,HOTOSM/OSM,11.917335,-1.573902,,,
Ecole primaire,school,Burkina Faso,BFA,HOTOSM/OSM,11.901054,-1.57589,,,
Ecole primaire,school,Burkina Faso,BFA,HOTOSM/OSM,11.933571,-1.594131,,,
Ecole primaire de Dapouri B,school,Burkina Faso,BFA,HOTOSM/OSM,12.024778,-1.823764,,,
Ecole primaire,school,Burkina Faso,BFA,HOTOSM/OSM,12.033096,-1.747925,,,
Ecole primaire de Dapouri A,school,Burkina Faso,BFA,HOTOSM/OSM,12.052106,-1.824701,,,
Préscolaire,kindergarten,Burkina Faso,BFA,HOTOSM/OSM,12.04754,-1.826743,,,
Ecole primaire de Kinkirou,school,Burkina Faso,BFA,HOTOSM/OSM,12.073916,-1.863269,,,
Préscolaire,kindergarten,Burkina Faso,BFA,HOTOSM/OSM,12.05539,-1.861563,,,
Ecole primaire de Goumsa,school,Burkina Faso,BFA,HOTOSM/OSM,12.054035,-1.862735,,,
Ecole primaire de Yipalin,school,Burkina Faso,BFA,HOTOSM/OSM,12.073538,-1.921824,,,
Ecole,school,Burkina Faso,BFA,HOTOSM/OSM,12.077635,-1.913717,,,
Ecole,school,Burkina Faso,BFA,HOTOSM/OSM,12.076688,-1.919263,,,
CEG de Dapouri,school,Burkina Faso,BFA,HOTOSM/OSM,12.042947,-1.819055,,,
Ecole primaire de Yélou-Gouroungo,school,Burkina Faso,BFA,HOTOSM/OSM,12.041423,-1.700201,,,
Ecole primaire de Toéghin,school,Burkina Faso,BFA,HOTOSM/OSM,12.077251,-1.686156,,,
Centre de formation technique,school,Burkina Faso,BFA,HOTOSM/OSM,12.00194,-1.798279,,,
Ecole primaire de Goumsin B,school,Burkina Faso,BFA,HOTOSM/OSM,12.000203,-1.803759,,,
Ecole primaire de Goumsin A,school,Burkina Faso,BFA,HOTOSM/OSM,12.005901,-1.815,,,
CEG de Goumsin,school,Burkina Faso,BFA,HOTOSM/OSM,12.007964,-1.815493,,,
Ecole primaire de Kayao A,school,Burkina Faso,BFA,HOTOSM/OSM,12.009403,-1.835205,,,
Ecole primaire de Penguen,school,Burkina Faso,BFA,HOTOSM/OSM,12.061393,-1.817105,,,
Ecole franco-arabe,school,Burkina Faso,BFA,HOTOSM/OSM,12.078958,-1.850582,,,
Ecole primaire de Sancé,school,Burkina Faso,BFA,HOTOSM/OSM,12.08646,-1.854872,,,
Ecole primaire Basme,school,Burkina Faso,BFA,HOTOSM/OSM,12.004696,-1.848985,,,
Ecole,school,Burkina Faso,BFA,HOTOSM/OSM,12.004784,-1.851548,,,
Ecole,school,Burkina Faso,BFA,HOTOSM/OSM,12.010639,-1.849757,,,
Complexe scolaire Kayao,school,Burkina Faso,BFA,HOTOSM/OSM,12.016154,-1.847892,,,
Complèxe scolaire Berekia,school,Burkina Faso,BFA,HOTOSM/OSM,11.124762,-2.081897,,,
Ecole primaire,school,Burkina Faso,BFA,HOTOSM/OSM,11.193059,-1.627405,,,
L'ecole Primaire,school,Burkina Faso,BFA,HOTOSM/OSM,11.121094,-1.918775,,,
École Asmadia,school,Burkina Faso,BFA,HOTOSM/OSM,11.093607,-2.094058,,,
École Maternelle et Primaire Les Cyprès,school,Burkina Faso,BFA,HOTOSM/OSM,11.094247,-2.098382,,,
Collège privé Le challenge,school,Burkina Faso,BFA,HOTOSM/OSM,11.09035,-2.101294,,,
École primaire publique de l'amitié Léo Nassau,school,Burkina Faso,BFA,HOTOSM/OSM,11.083944,-2.095215,,,
École primaire YENOU-ZIAN,school,Burkina Faso,BFA,HOTOSM/OSM,11.105516,-2.085742,,,
Lycée Espoir de Léo,school,Burkina Faso,BFA,HOTOSM/OSM,11.101641,-2.091925,,,
Médersa,school,Burkina Faso,BFA,HOTOSM/OSM,11.873269,-1.468465,,,
École primaire évangélique de Léo,school,Burkina Faso,BFA,HOTOSM/OSM,11.10181,-2.093188,,,
École primaire Kutian,school,Burkina Faso,BFA,HOTOSM/OSM,11.103324,-2.096877,,,
Ecole primaire,school,Burkina Faso,BFA,HOTOSM/OSM,11.366691,-1.565965,,,
Médersa,school,Burkina Faso,BFA,HOTOSM/OSM,11.373221,-1.560352,,,
Ecole primaire,school,Burkina Faso,BFA,HOTOSM/OSM,11.289517,-1.55574,,,
Ecole primaire,school,Burkina Faso,BFA,HOTOSM/OSM,11.32147,-1.52694,,,
Ecole primaire,school,Burkina Faso,BFA,HOTOSM/OSM,11.288163,-1.540187,,,
Ecole primaire,school,Burkina Faso,BFA,HOTOSM/OSM,11.296753,-1.505592,,,
CEG,school,Burkina Faso,BFA,HOTOSM/OSM,11.304534,-1.449592,,,
Ecole primaire,school,Burkina Faso,BFA,HOTOSM/OSM,11.296124,-1.449771,,,
Ecole primaire,school,Burkina Faso,BFA,HOTOSM/OSM,11.235627,-1.570492,,,
CEG,school,Burkina Faso,BFA,HOTOSM/OSM,11.375142,-1.559946,,,
Tampé,school,Burkina Faso,BFA,HOTOSM/OSM,10.963829,-3.333209,,,
Ecole primaire,school,Burkina Faso,BFA,HOTOSM/OSM,11.039243,-2.476458,,,
Ecole,school,Burkina Faso,BFA,HOTOSM/OSM,11.052092,-2.500341,,,
Ecole primaire,school,Burkina Faso,BFA,HOTOSM/OSM,11.055127,-2.498322,,,
Ecole primaire,school,Burkina Faso,BFA,HOTOSM/OSM,11.089825,-2.500236,,,
Ecole primaire,school,Burkina Faso,BFA,HOTOSM/OSM,11.175276,-2.509105,,,
Lycee Provincial du Ioba,kindergarten,Burkina Faso,BFA,HOTOSM/OSM,11.148826,-3.049729,,,
Centre d'éveil et d'education préscolaire de Léo,kindergarten,Burkina Faso,BFA,HOTOSM/OSM,11.100152,-2.103686,,,
Ecole Dano B,kindergarten,Burkina Faso,BFA,HOTOSM/OSM,11.152176,-3.068596,,,
Ecole primaire de Gagnime,school,Burkina Faso,BFA,HOTOSM/OSM,11.318186,-3.146981,,,
CEG de Oronkua,school,Burkina Faso,BFA,HOTOSM/OSM,11.290596,-3.094108,,,
Ecole primaire,school,Burkina Faso,BFA,HOTOSM/OSM,11.045933,-2.322751,,,
CEG,school,Burkina Faso,BFA,HOTOSM/OSM,11.06651,-2.377604,,,
Ecole primaire,school,Burkina Faso,BFA,HOTOSM/OSM,11.066114,-2.375773,,,
Ecole primaire,school,Burkina Faso,BFA,HOTOSM/OSM,11.134234,-2.432698,,,
Ecole primaire,school,Burkina Faso,BFA,HOTOSM/OSM,11.09573,-2.434806,,,
Ecole primaire,school,Burkina Faso,BFA,HOTOSM/OSM,11.040038,-2.438976,,,
Ecole primaire de Yéhoun,school,Burkina Faso,BFA,HOTOSM/OSM,11.301145,-3.397637,,,
Ecole primaire,school,Burkina Faso,BFA,HOTOSM/OSM,11.033526,-2.398887,,,
Ecole primaire,school,Burkina Faso,BFA,HOTOSM/OSM,10.998567,-2.455273,,,
Ecole,school,Burkina Faso,BFA,HOTOSM/OSM,11.051392,-2.500135,,,
Ecole primaire de Watinoma,school,Burkina Faso,BFA,HOTOSM/OSM,11.794479,-2.025076,,,
Ecole,school,Burkina Faso,BFA,HOTOSM/OSM,11.802597,-1.9844,,,
Ecole primaire,school,Burkina Faso,BFA,HOTOSM/OSM,11.797792,-1.993767,,,
Ecole,school,Burkina Faso,BFA,HOTOSM/OSM,11.805917,-2.00972,,,
Ecole primaire de Soula,school,Burkina Faso,BFA,HOTOSM/OSM,11.844726,-1.989417,,,
Ecole primaire de Zenloua,school,Burkina Faso,BFA,HOTOSM/OSM,11.877895,-1.968479,,,
Ecole primaire de Netiao,school,Burkina Faso,BFA,HOTOSM/OSM,11.87128,-2.013969,,,
Préscolaire,kindergarten,Burkina Faso,BFA,HOTOSM/OSM,11.872501,-2.015416,,,
Ecole primaire de Laré,school,Burkina Faso,BFA,HOTOSM/OSM,11.858997,-2.073915,,,
Ecole primaire de Zao,school,Burkina Faso,BFA,HOTOSM/OSM,11.839626,-2.117345,,,
Ecole primaire de Dana,school,Burkina Faso,BFA,HOTOSM/OSM,11.858761,-2.147728,,,
Ecole primaire,school,Burkina Faso,BFA,HOTOSM/OSM,11.835008,-2.148618,,,
Ecole primaire,school,Burkina Faso,BFA,HOTOSM/OSM,11.759583,-2.150908,,,
Ecole primaire Bazilakoa B,school,Burkina Faso,BFA,HOTOSM/OSM,11.789873,-2.126916,,,
Ecole primaire,school,Burkina Faso,BFA,HOTOSM/OSM,11.754551,-2.127017,,,
Lycée Municipal de la Commune de Dalô,school,Burkina Faso,BFA,HOTOSM/OSM,11.74874,-2.102975,,,
École primaire B,school,Burkina Faso,BFA,HOTOSM/OSM,11.733736,-2.090418,,,
Ecole primaire,school,Burkina Faso,BFA,HOTOSM/OSM,11.721078,-2.094708,,,
CEG,school,Burkina Faso,BFA,HOTOSM/OSM,11.806864,-2.01662,,,
Ecole primaire,school,Burkina Faso,BFA,HOTOSM/OSM,11.8684,-1.467726,,,
Projet (CEG?),school,Burkina Faso,BFA,HOTOSM/OSM,11.872049,-1.476119,,,
Ecole primaire,school,Burkina Faso,BFA,HOTOSM/OSM,11.856515,-1.480752,,,
Ecole primaire,school,Burkina Faso,BFA,HOTOSM/OSM,11.835243,-1.465275,,,
CEG,school,Burkina Faso,BFA,HOTOSM/OSM,11.848491,-1.488869,,,
Ecole primaire de Bouyoua,school,Burkina Faso,BFA,HOTOSM/OSM,11.676555,-1.849961,,,
Ecole primaire de Ouayou,school,Burkina Faso,BFA,HOTOSM/OSM,11.708932,-1.998599,,,
Ecole primaire A,school,Burkina Faso,BFA,HOTOSM/OSM,11.747105,-2.069026,,,
Ecole primaire,school,Burkina Faso,BFA,HOTOSM/OSM,11.754354,-2.074488,,,
Ecole primaire de Lao,school,Burkina Faso,BFA,HOTOSM/OSM,11.784676,-2.047669,,,
Ecole primaire de Latian,school,Burkina Faso,BFA,HOTOSM/OSM,11.442728,-1.706094,,,
Ecole primaire de Kada,school,Burkina Faso,BFA,HOTOSM/OSM,11.475958,-1.6586,,,
Ecole primaire de Faro,school,Burkina Faso,BFA,HOTOSM/OSM,11.454206,-1.59231,,,
Ecole primaire de Nékrou,school,Burkina Faso,BFA,HOTOSM/OSM,11.476274,-1.558691,,,
