{
  "1998": {
    "Kadiogo": {
      "count": 801,
      "schools": [
        {
          "name": "institut de formation colbert",
          "lat": 12.31728,
          "lon": -1.525117
        },
        {
          "name": "École maternelle primaire \"THEA\"",
          "lat": 12.329777,
          "lon": -1.525389
        },
        {
          "name": "Collège Privé RAMODG-WENDE",
          "lat": 12.329418,
          "lon": -1.52494
        },
        {
          "name": "Institut Supérieur Privé de Management",
          "lat": 12.357004,
          "lon": -1.492439
        },
        {
          "name": "Juvenat filles st camille",
          "lat": 12.376638,
          "lon": -1.474951
        },
        {
          "name": "Université Aube Nouvelle",
          "lat": 12.36053,
          "lon": -1.498142
        },
        {
          "name": "CEEP Le Petit Monde",
          "lat": 12.359614,
          "lon": -1.50002
        },
        {
          "name": "Le Petit Monde",
          "lat": 12.358894,
          "lon": -1.500527
        },
        {
          "name": "Lycee de la jeunesse",
          "lat": 12.382832,
          "lon": -1.476206
        },
        {
          "name": "Lycée Novus",
          "lat": 12.367849,
          "lon": -1.47021
        },
        {
          "name": "Detachement Université ouaga II",
          "lat": 12.363072,
          "lon": -1.480181
        },
        {
          "name": "Groupe Scolaire Sainte-Collete - annexe professionnelle",
          "lat": 12.368406,
          "lon": -1.463046
        },
        {
          "name": "Cours privé Marie Curie",
          "lat": 12.369727,
          "lon": -1.46258
        },
        {
          "name": "ISIG INTERNATIONAL Annexe",
          "lat": 12.369224,
          "lon": -1.497944
        },
        {
          "name": "Ephata International",
          "lat": 12.383686,
          "lon": -1.477285
        },
        {
          "name": "Lycée technique Jean-paul II",
          "lat": 12.362105,
          "lon": -1.482988
        },
        {
          "name": "Garderie centre d'acceuil",
          "lat": 12.360979,
          "lon": -1.482687
        },
        {
          "name": "institut Panafricaine de Formation En Aeronautique",
          "lat": 12.363317,
          "lon": -1.480002
        },
        {
          "name": "Centre d'Apprentissage et de Perfectionnement En Anglais",
          "lat": 12.365032,
          "lon": -1.478848
        },
        {
          "name": "Institut des Sciences Techniques et de Management",
          "lat": 12.37643,
          "lon": -1.493462
        },
        {
          "name": "Institut International d'Ingénierie de l'Eau et de l'Environnement",
          "lat": 12.379233,
          "lon": -1.503213
        },
        {
          "name": "Charis",
          "lat": 12.373815,
          "lon": -1.488201
        },
        {
          "name": "juvenat garçon st camille",
          "lat": 12.375277,
          "lon": -1.490224
        },
        {
          "name": "Ecole Nationale Des Postes (ENAPOSTE)",
          "lat": 12.370328,
          "lon": -1.51426
        },
        {
          "name": "Joyeux bambims",
          "lat": 12.37394,
          "lon": -1.533896
        },
        {
          "name": "complexe cours du soir namalgué",
          "lat": 12.337137,
          "lon": -1.533352
        },
        {
          "name": "Steve Biko",
          "lat": 12.337424,
          "lon": -1.533495
        },
        {
          "name": "Jokkolabs Ouagadougou",
          "lat": 12.353762,
          "lon": -1.522504
        },
        {
          "name": "École primaire Tarwende",
          "lat": 12.336617,
          "lon": -1.540146
        },
        {
          "name": "Lagem Taaba A et B",
          "lat": 12.318511,
          "lon": -1.519722
        },
        {
          "name": "Ecole La Savane",
          "lat": 12.331121,
          "lon": -1.546293
        },
        {
          "name": "Lycée privé Millenium plus",
          "lat": 12.330523,
          "lon": -1.549028
        },
        {
          "name": "Préscolaire Communautaire Kam Laada (ICCV)",
          "lat": 12.33523,
          "lon": -1.534858
        },
        {
          "name": "Institut d'Application et de Vulgarisation en Sciences",
          "lat": 12.334765,
          "lon": -1.538247
        },
        {
          "name": "Complexe scolaire Saint-Laurent Remaria",
          "lat": 12.339547,
          "lon": -1.539258
        },
        {
          "name": "Lycée Privé Wend-Manegret",
          "lat": 12.334202,
          "lon": -1.495381
        },
        {
          "name": "Instutit Africain de Management (IAM)",
          "lat": 12.32703,
          "lon": -1.502006
        },
        {
          "name": "Groupe ESCO IGES",
          "lat": 12.346184,
          "lon": -1.550308
        },
        {
          "name": "lycée Nouvel Saint Florent",
          "lat": 12.394063,
          "lon": -1.581673
        },
        {
          "name": "Groupe scolaire le lauréat",
          "lat": 12.383033,
          "lon": -1.55154
        },
        {
          "name": "Lycée Privé \"La Compétence\"",
          "lat": 12.377896,
          "lon": -1.536084
        },
        {
          "name": "Collège Savoir Plus annexe 1200 logements",
          "lat": 12.378689,
          "lon": -1.543268
        },
        {
          "name": "Centre d'éveil et d'éducation préscolaire privé",
          "lat": 12.3779,
          "lon": -1.543028
        },
        {
          "name": "Ecolre primaire Ste Thérèse de l'enfant Jesus",
          "lat": 12.383961,
          "lon": -1.544934
        },
        {
          "name": "Ecole maternelle primaire EL-OLAM",
          "lat": 12.3748,
          "lon": -1.540566
        },
        {
          "name": "Les Tout-Petits \"B\"",
          "lat": 12.385237,
          "lon": -1.539049
        },
        {
          "name": "Ecole fraco arabe Sadakatou Al Islamiya",
          "lat": 12.384012,
          "lon": -1.534363
        },
        {
          "name": "Boblawendé",
          "lat": 12.373696,
          "lon": -1.551274
        },
        {
          "name": "Lycée privé Noureine",
          "lat": 12.371254,
          "lon": -1.557902
        },
        {
          "name": "Collège de l'avenir Saint Michel de Ouaga",
          "lat": 12.373662,
          "lon": -1.544975
        },
        {
          "name": "Groupe Scolaire la Roseraie",
          "lat": 12.348394,
          "lon": -1.531298
        },
        {
          "name": "Ecole Supérieure des Techniques Avancées",
          "lat": 12.394456,
          "lon": -1.502312
        },
        {
          "name": "Institut Burkinabè des Arts et Métiers",
          "lat": 12.40778,
          "lon": -1.497337
        },
        {
          "name": "École Mixte St-Joseph",
          "lat": 12.348456,
          "lon": -1.498081
        },
        {
          "name": "Ecole Dassasgo B",
          "lat": 12.389365,
          "lon": -1.468436
        },
        {
          "name": "KLD institut/ouaga ET Lycée technique Djedri",
          "lat": 12.349006,
          "lon": -1.489637
        },
        {
          "name": "Institut panafricain d'étude et de recherche sur les médias, l'information et la communication",
          "lat": 12.381871,
          "lon": -1.467321
        },
        {
          "name": "ESMAT Ecole Superieur De management Et Technologie Appliquées",
          "lat": 12.385332,
          "lon": -1.468086
        },
        {
          "name": "Center Universitaire des Systèmes d'Information Géographiques et de Télédétection Adjaratou",
          "lat": 12.390009,
          "lon": -1.482741
        },
        {
          "name": "Lycée technique apliquée",
          "lat": 12.359889,
          "lon": -1.550888
        },
        {
          "name": "Saint Aloys",
          "lat": 12.36119,
          "lon": -1.546225
        },
        {
          "name": "Ecole Supérieure de Commerce et d’Informatique de Gestion",
          "lat": 12.362001,
          "lon": -1.543933
        },
        {
          "name": "Ecole des Jeunes Aveugle de l'ABPAM",
          "lat": 12.356771,
          "lon": -1.549986
        },
        {
          "name": "Préscolaire Inclusif de L'Ecole des Jeunes Aveugles de l'ABPAM",
          "lat": 12.357154,
          "lon": -1.550085
        },
        {
          "name": "Les Flamboyants",
          "lat": 12.354103,
          "lon": -1.540166
        },
        {
          "name": "CELEP BURKINA",
          "lat": 12.360929,
          "lon": -1.545836
        },
        {
          "name": "Institut des Sciences et Techniques de l’Information et de la Communication",
          "lat": 12.369767,
          "lon": -1.514197
        },
        {
          "name": "Ecole privée Saint Aloys",
          "lat": 12.362361,
          "lon": -1.55382
        },
        {
          "name": "Collège Privé Marguerite Yourcenar",
          "lat": 12.360985,
          "lon": -1.558308
        },
        {
          "name": "Les trésors plus",
          "lat": 12.362614,
          "lon": -1.558375
        },
        {
          "name": "Ecole privée Piidi les fleurs",
          "lat": 12.363443,
          "lon": -1.556439
        },
        {
          "name": "La Bénédiction",
          "lat": 12.310648,
          "lon": -1.608411
        },
        {
          "name": "Business Intelligence Institute",
          "lat": 12.341927,
          "lon": -1.552731
        },
        {
          "name": "Ecole privé elina",
          "lat": 12.355266,
          "lon": -1.553262
        },
        {
          "name": "Institut Supérieur de Développement d’Entreprises",
          "lat": 12.32943,
          "lon": -1.615641
        },
        {
          "name": "Ecole CEFISE BENAJA DE BENDOGO",
          "lat": 12.388642,
          "lon": -1.454412
        },
        {
          "name": "École Tabtinga",
          "lat": 12.380264,
          "lon": -1.461488
        },
        {
          "name": "Groupe Scolaire Saint Viateur",
          "lat": 12.377835,
          "lon": -1.467295
        },
        {
          "name": "École Dassasgo C D",
          "lat": 12.373611,
          "lon": -1.476664
        },
        {
          "name": "ESTA Annexe",
          "lat": 12.370408,
          "lon": -1.475271
        },
        {
          "name": "École Wemtenga",
          "lat": 12.373356,
          "lon": -1.484527
        },
        {
          "name": "EPFWP",
          "lat": 12.381187,
          "lon": -1.479155
        },
        {
          "name": "Juvenat",
          "lat": 12.377409,
          "lon": -1.475099
        },
        {
          "name": "École Dassasgo A E F",
          "lat": 12.385423,
          "lon": -1.474666
        },
        {
          "name": "Lycée de la jeunesse",
          "lat": 12.382428,
          "lon": -1.476388
        },
        {
          "name": "ESSUPJ",
          "lat": 12.382979,
          "lon": -1.477018
        },
        {
          "name": "École Kossodo A D",
          "lat": 12.416795,
          "lon": -1.468462
        },
        {
          "name": "مدرسة الأخلاق",
          "lat": 12.385698,
          "lon": -1.482416
        },
        {
          "name": "École Nabonswendé",
          "lat": 12.389695,
          "lon": -1.479816
        },
        {
          "name": "ENAREF",
          "lat": 12.391794,
          "lon": -1.479552
        },
        {
          "name": "Fondation Jean Paul II IPD AOS",
          "lat": 12.392227,
          "lon": -1.467418
        },
        {
          "name": "École primaire évangélique",
          "lat": 12.38447,
          "lon": -1.463385
        },
        {
          "name": "Lycée technique Amilcar cabral",
          "lat": 12.381924,
          "lon": -1.461985
        },
        {
          "name": "Noviciat",
          "lat": 12.384018,
          "lon": -1.460867
        },
        {
          "name": "Centre de Formation Biblique",
          "lat": 12.384412,
          "lon": -1.459244
        },
        {
          "name": "Centre Islamique \"El Nour\"",
          "lat": 12.382212,
          "lon": -1.460495
        },
        {
          "name": "Ecole Trame d´accueil",
          "lat": 12.383098,
          "lon": -1.455285
        },
        {
          "name": "Groupe scolaire sainte Colette",
          "lat": 12.374151,
          "lon": -1.458839
        },
        {
          "name": "ecole Elysa",
          "lat": 12.389003,
          "lon": -1.457026
        },
        {
          "name": "Ecole Famille",
          "lat": 12.391205,
          "lon": -1.454374
        },
        {
          "name": "Lycee Privé Oudisongdé",
          "lat": 12.400365,
          "lon": -1.462369
        },
        {
          "name": "Ecole Anny Simone",
          "lat": 12.401031,
          "lon": -1.462534
        },
        {
          "name": "Crèche maternelle bilingue Blessing",
          "lat": 12.402991,
          "lon": -1.467604
        },
        {
          "name": "École Wayalgin D",
          "lat": 12.397531,
          "lon": -1.46093
        },
        {
          "name": "Lycée William Ponty",
          "lat": 12.395858,
          "lon": -1.461923
        },
        {
          "name": "Lycée Newton Descartes",
          "lat": 12.393792,
          "lon": -1.469352
        },
        {
          "name": "Ecole Wayalguin A B",
          "lat": 12.393913,
          "lon": -1.470195
        },
        {
          "name": "Grand Séminaire Saint jean-baptiste",
          "lat": 12.395456,
          "lon": -1.476524
        },
        {
          "name": "ecole Wayalgin C",
          "lat": 12.39886,
          "lon": -1.48005
        },
        {
          "name": "Groupe scolaire la source",
          "lat": 12.401833,
          "lon": -1.476777
        },
        {
          "name": "Les Écoles Privées Sainte Philomène",
          "lat": 12.424005,
          "lon": -1.598277
        },
        {
          "name": "Lycée Privé TOUNDA-SIDA",
          "lat": 12.425443,
          "lon": -1.592632
        },
        {
          "name": "OSMANLI SIDDIKLAR",
          "lat": 12.427205,
          "lon": -1.594542
        },
        {
          "name": "WEND SONGDA",
          "lat": 12.427542,
          "lon": -1.591086
        },
        {
          "name": "École Primaire Privée Teel-Taaba",
          "lat": 12.426599,
          "lon": -1.58711
        },
        {
          "name": "Groupe Scolaire E.D.I.F",
          "lat": 12.420245,
          "lon": -1.591561
        },
        {
          "name": "Groupe Scolaire la Relève Vaillante",
          "lat": 12.423118,
          "lon": -1.600397
        },
        {
          "name": "Lycée Technique Abbé Pierre",
          "lat": 12.421294,
          "lon": -1.592076
        },
        {
          "name": "Ecole primaire",
          "lat": 12.304506,
          "lon": -1.608797
        },
        {
          "name": "Ecole",
          "lat": 12.300925,
          "lon": -1.604523
        },
        {
          "name": "Université de Formation Biblique et Théologique Logos",
          "lat": 12.334617,
          "lon": -1.60699
        },
        {
          "name": "Ecole primaire",
          "lat": 12.300264,
          "lon": -1.600341
        },
        {
          "name": "Ecole primaire",
          "lat": 12.305402,
          "lon": -1.600866
        },
        {
          "name": "Lycée Philippe Zinda Kaboré",
          "lat": 12.374821,
          "lon": -1.518133
        },
        {
          "name": "Lycéé Privée Mixte Bangre Nooma",
          "lat": 12.374059,
          "lon": -1.51616
        },
        {
          "name": "École Kwamé N'Krumah B",
          "lat": 12.375004,
          "lon": -1.548698
        },
        {
          "name": "Institut Franco-Arabe \"Al Elmi\"",
          "lat": 12.373637,
          "lon": -1.554292
        },
        {
          "name": "École publique Ouogodogo C D",
          "lat": 12.372746,
          "lon": -1.566888
        },
        {
          "name": "École maternelle le petit David",
          "lat": 12.376285,
          "lon": -1.56549
        },
        {
          "name": "Ecole Ouogodogo A B",
          "lat": 12.378432,
          "lon": -1.55817
        },
        {
          "name": "Ecole Naba Wagsé B",
          "lat": 12.379582,
          "lon": -1.553402
        },
        {
          "name": "Ecole primaire privée mixte la voie du succès 1",
          "lat": 12.382197,
          "lon": -1.554342
        },
        {
          "name": "École Tampouy C",
          "lat": 12.392115,
          "lon": -1.554062
        },
        {
          "name": "Collège Protestant",
          "lat": 12.39256,
          "lon": -1.518716
        },
        {
          "name": "ECAOYYA Norghin B",
          "lat": 12.384718,
          "lon": -1.528148
        },
        {
          "name": "Garderie",
          "lat": 12.381788,
          "lon": -1.527052
        },
        {
          "name": "COLLÈGE PRIVÉ OMAR BEN",
          "lat": 12.38819,
          "lon": -1.565923
        },
        {
          "name": "Lycée privé le Salut",
          "lat": 12.388165,
          "lon": -1.565674
        },
        {
          "name": "Lycée classiquede Sig-Nonghin",
          "lat": 12.387728,
          "lon": -1.566763
        },
        {
          "name": "École Wekim Yam",
          "lat": 12.386297,
          "lon": -1.561514
        },
        {
          "name": "École Kolg-Kom",
          "lat": 12.38486,
          "lon": -1.572365
        },
        {
          "name": "Centre d'eveil et d'education prescolaire",
          "lat": 12.386457,
          "lon": -1.574544
        },
        {
          "name": "La Renaissance",
          "lat": 12.38848,
          "lon": -1.567734
        },
        {
          "name": "Lycee Prive la Reference",
          "lat": 12.388713,
          "lon": -1.573227
        },
        {
          "name": "École Signonghin A B",
          "lat": 12.393165,
          "lon": -1.576371
        },
        {
          "name": "Bibliothèque",
          "lat": 12.390015,
          "lon": -1.582745
        },
        {
          "name": "École Bass-Yiré",
          "lat": 12.387551,
          "lon": -1.582526
        },
        {
          "name": "Complexe Scolaire Wend-Lamita",
          "lat": 12.387019,
          "lon": -1.579172
        },
        {
          "name": "Université Populaire Africaine",
          "lat": 12.376968,
          "lon": -1.534623
        },
        {
          "name": "École larlé A B",
          "lat": 12.376489,
          "lon": -1.536026
        },
        {
          "name": "Complexe scolaire \"Les Elites\"",
          "lat": 12.392742,
          "lon": -1.564456
        },
        {
          "name": "Groupe Scolaire LE PETIT POUCET",
          "lat": 12.371475,
          "lon": -1.495603
        },
        {
          "name": "Université Evangélique du Kadiogo",
          "lat": 12.372923,
          "lon": -1.495617
        },
        {
          "name": "Institut Supérieur de Management et de Technologie",
          "lat": 12.373568,
          "lon": -1.493669
        },
        {
          "name": "Lycée Réveil",
          "lat": 12.371433,
          "lon": -1.498824
        },
        {
          "name": "Belemtissé 3",
          "lat": 12.370346,
          "lon": -1.498578
        },
        {
          "name": "Master SIG",
          "lat": 12.376764,
          "lon": -1.50392
        },
        {
          "name": "2iE",
          "lat": 12.379293,
          "lon": -1.503614
        },
        {
          "name": "Ecole primaire française Saint-Exupéry",
          "lat": 12.370443,
          "lon": -1.517855
        },
        {
          "name": "Ecole de Douane",
          "lat": 12.375327,
          "lon": -1.520059
        },
        {
          "name": "École Nemnin",
          "lat": 12.381579,
          "lon": -1.532397
        },
        {
          "name": "Ecole primaire privé Man Daabo",
          "lat": 12.377949,
          "lon": -1.523406
        },
        {
          "name": "ecole primaire dapoya 2",
          "lat": 12.381695,
          "lon": -1.5189
        },
        {
          "name": "École Sacré-Cœur de Dapoya",
          "lat": 12.382755,
          "lon": -1.52307
        },
        {
          "name": "Collège de Formation Technique",
          "lat": 12.375759,
          "lon": -1.516541
        },
        {
          "name": "CNRST-STIC",
          "lat": 12.381534,
          "lon": -1.504062
        },
        {
          "name": "Lycée BOGODOGO de Ouagadougou",
          "lat": 12.380844,
          "lon": -1.506501
        },
        {
          "name": "ENAM",
          "lat": 12.378817,
          "lon": -1.506035
        },
        {
          "name": "Ecole Nongremasson",
          "lat": 12.381673,
          "lon": -1.514863
        },
        {
          "name": "École Paspanga A et B",
          "lat": 12.377588,
          "lon": -1.517516
        },
        {
          "name": "Ecole primaire Paspanga C",
          "lat": 12.378239,
          "lon": -1.515328
        },
        {
          "name": "Lycée privé JOHN KENEDY",
          "lat": 12.386029,
          "lon": -1.541288
        },
        {
          "name": "Ecole privée apostolique",
          "lat": 12.392676,
          "lon": -1.536421
        },
        {
          "name": "Complexe scolaire la source du savoir",
          "lat": 12.38238,
          "lon": -1.549759
        },
        {
          "name": "École Kologh-Naba",
          "lat": 12.381115,
          "lon": -1.548549
        },
        {
          "name": "Ecole Yennega de Ouidi",
          "lat": 12.378674,
          "lon": -1.544459
        },
        {
          "name": "Collège des jeunes filles Notre Dame de Kologh-Naba",
          "lat": 12.381069,
          "lon": -1.546076
        },
        {
          "name": "École Communale B de Ouidi",
          "lat": 12.379464,
          "lon": -1.536789
        },
        {
          "name": "Lycée Dimdolossom",
          "lat": 12.37756,
          "lon": -1.535703
        },
        {
          "name": "Bâtiment Scientifique",
          "lat": 12.380019,
          "lon": -1.502087
        },
        {
          "name": "École Primaire Publique KILWIN A et B",
          "lat": 12.394551,
          "lon": -1.592243
        },
        {
          "name": "École Galiyam",
          "lat": 12.405683,
          "lon": -1.579585
        },
        {
          "name": "lycée privé Sig Noghin",
          "lat": 12.401093,
          "lon": -1.577055
        },
        {
          "name": "École de CNSS",
          "lat": 12.393563,
          "lon": -1.583601
        },
        {
          "name": "Collège Nakem Zanga",
          "lat": 12.39578,
          "lon": -1.581333
        },
        {
          "name": "École basywensida",
          "lat": 12.39501,
          "lon": -1.576513
        },
        {
          "name": "École Tampouy A B",
          "lat": 12.395135,
          "lon": -1.570143
        },
        {
          "name": "Soeurs Aspirat",
          "lat": 12.394949,
          "lon": -1.568215
        },
        {
          "name": "Complexe scolaire \"Bendré\" annexe",
          "lat": 12.397259,
          "lon": -1.567444
        },
        {
          "name": "École notre Dame de l´Espérance",
          "lat": 12.401505,
          "lon": -1.569486
        },
        {
          "name": "École Sakada",
          "lat": 12.402414,
          "lon": -1.574755
        },
        {
          "name": "École bilingue privé \"Les Tout-petits C",
          "lat": 12.400707,
          "lon": -1.562872
        },
        {
          "name": "Les petites Elites",
          "lat": 12.39943,
          "lon": -1.563579
        },
        {
          "name": "COLLEGE LE RONIER",
          "lat": 12.328243,
          "lon": -1.466787
        },
        {
          "name": "Complexe scolaire \"La Solution\"",
          "lat": 12.325256,
          "lon": -1.467037
        },
        {
          "name": "Centre d'éveil \"Les Flambeaux de SCHECKINA\"",
          "lat": 12.32324,
          "lon": -1.463352
        },
        {
          "name": "Complexe scolaire \"Bendré\"",
          "lat": 12.396607,
          "lon": -1.566982
        },
        {
          "name": "Lycée Privé\"Les intellos\"",
          "lat": 12.396177,
          "lon": -1.56716
        },
        {
          "name": "École Tampouy E",
          "lat": 12.395163,
          "lon": -1.564175
        },
        {
          "name": "Lycée municipal",
          "lat": 12.397157,
          "lon": -1.560756
        },
        {
          "name": "Ecole Kossoghin",
          "lat": 12.400938,
          "lon": -1.554454
        },
        {
          "name": "Complexe scolaire Eurêka",
          "lat": 12.415132,
          "lon": -1.562417
        },
        {
          "name": "Complexe Scolaire SIGUIAN",
          "lat": 12.431338,
          "lon": -1.566519
        },
        {
          "name": "Lycée Som-Pagnimdi de Kamboinsin",
          "lat": 12.444186,
          "lon": -1.562205
        },
        {
          "name": "le cercle des enfants",
          "lat": 12.45169,
          "lon": -1.553197
        },
        {
          "name": "EAGCO",
          "lat": 12.326222,
          "lon": -1.477133
        },
        {
          "name": "Lycée Privé la Verdure",
          "lat": 12.390894,
          "lon": -1.556623
        },
        {
          "name": "Ecole superieure SUP MANAGEMENT",
          "lat": 12.387657,
          "lon": -1.556919
        },
        {
          "name": "Complexe scolaire \"Koss-Yam Plus\"",
          "lat": 12.39246,
          "lon": -1.564902
        },
        {
          "name": "École bilingue privé \"Les Tout-petits C",
          "lat": 12.40012,
          "lon": -1.563603
        },
        {
          "name": "Complexe Scolaire Privé Bissongo II",
          "lat": 12.434828,
          "lon": -1.58879
        },
        {
          "name": "École Primaire Toecin A,B et C",
          "lat": 12.385854,
          "lon": -1.57795
        },
        {
          "name": "Centre d'eveil et d'education prescolaire et primaire",
          "lat": 12.384626,
          "lon": -1.579773
        },
        {
          "name": "Les cours privés de la Solidarité",
          "lat": 12.377364,
          "lon": -1.571739
        },
        {
          "name": "École publique Nongomikim",
          "lat": 12.372433,
          "lon": -1.572801
        },
        {
          "name": "École primaire privée Song-Taba",
          "lat": 12.371424,
          "lon": -1.574696
        },
        {
          "name": "École Franco-Arabe",
          "lat": 12.371508,
          "lon": -1.576207
        },
        {
          "name": "ECOLE RIMKIETA",
          "lat": 12.378184,
          "lon": -1.585582
        },
        {
          "name": "Complexe Scolaire Les Petits Pionniers",
          "lat": 12.379551,
          "lon": -1.611382
        },
        {
          "name": "Lycée Wendenda",
          "lat": 12.391424,
          "lon": -1.585783
        },
        {
          "name": "École de Signonghin C",
          "lat": 12.396375,
          "lon": -1.584868
        },
        {
          "name": "Lycée Technique Nouvelle Vision",
          "lat": 12.393722,
          "lon": -1.586751
        },
        {
          "name": "Centre Dominique Chauvet d´arcizas",
          "lat": 12.397384,
          "lon": -1.58659
        },
        {
          "name": "École Bambi-Metais",
          "lat": 12.401142,
          "lon": -1.565045
        },
        {
          "name": "Lycée Privé Yilin international",
          "lat": 12.373938,
          "lon": -1.48825
        },
        {
          "name": "Ecole Tanghin C",
          "lat": 12.400929,
          "lon": -1.539436
        },
        {
          "name": "Ecole Taombila A B",
          "lat": 12.404373,
          "lon": -1.538574
        },
        {
          "name": "Ecole du Secteur 23 B",
          "lat": 12.401739,
          "lon": -1.532461
        },
        {
          "name": "Ecole Tanghin barrage A B C",
          "lat": 12.394649,
          "lon": -1.531825
        },
        {
          "name": "université Libre du Burkina ULB",
          "lat": 12.398493,
          "lon": -1.51332
        },
        {
          "name": "École \"Le Messager\"",
          "lat": 12.394455,
          "lon": -1.514366
        },
        {
          "name": "École \"Sabin Barrage\" A B C",
          "lat": 12.396348,
          "lon": -1.513938
        },
        {
          "name": "École zone du bois",
          "lat": 12.38582,
          "lon": -1.49262
        },
        {
          "name": "École de l´amitié",
          "lat": 12.384639,
          "lon": -1.487688
        },
        {
          "name": "École Belemtissé",
          "lat": 12.384103,
          "lon": -1.492305
        },
        {
          "name": "Ecole Belemtissé",
          "lat": 12.384137,
          "lon": -1.492356
        },
        {
          "name": "École nationale de santé animale",
          "lat": 12.385067,
          "lon": -1.497022
        },
        {
          "name": "Lycée Technique de Ouagadougou",
          "lat": 12.381803,
          "lon": -1.497668
        },
        {
          "name": "École Tanghin Barrage A B C",
          "lat": 12.394557,
          "lon": -1.531499
        },
        {
          "name": "Université Joseph Ki-Zerbo de Ouagadougou",
          "lat": 12.378602,
          "lon": -1.500463
        },
        {
          "name": "INSTITUT SUPÉRIEUR DES SCIENCES DE LA POPULATION",
          "lat": 12.376608,
          "lon": -1.498576
        },
        {
          "name": "École Communale de Zogona",
          "lat": 12.376703,
          "lon": -1.494702
        },
        {
          "name": "École Internationale",
          "lat": 12.380061,
          "lon": -1.489485
        },
        {
          "name": "École Franco-arabe",
          "lat": 12.380398,
          "lon": -1.487536
        },
        {
          "name": "Collège Horizon International",
          "lat": 12.379557,
          "lon": -1.48815
        },
        {
          "name": "Institut technique et commercial Akpode (ITCA)",
          "lat": 12.379532,
          "lon": -1.487618
        },
        {
          "name": "Ecole franco-arabe",
          "lat": 12.407616,
          "lon": -1.509589
        },
        {
          "name": "Ecole primaire Paspanga D",
          "lat": 12.37767,
          "lon": -1.514414
        },
        {
          "name": "Lycée Nelson Mandela",
          "lat": 12.376601,
          "lon": -1.515031
        },
        {
          "name": "Centre Africain de Diffusion Islamique",
          "lat": 12.377537,
          "lon": -1.490933
        },
        {
          "name": "Crèche maternelle \"La belle enfance\"",
          "lat": 12.373983,
          "lon": -1.491413
        },
        {
          "name": "École Doctorale Université Thomas Sankara",
          "lat": 12.375317,
          "lon": -1.486521
        },
        {
          "name": "UO2 présidence",
          "lat": 12.37536,
          "lon": -1.485265
        },
        {
          "name": "Amphi D de l'Union africaine",
          "lat": 12.379969,
          "lon": -1.50034
        },
        {
          "name": "École Tanghin A",
          "lat": 12.405071,
          "lon": -1.518197
        },
        {
          "name": "Ecole primaire ATA",
          "lat": 12.406962,
          "lon": -1.533566
        },
        {
          "name": "Lycée privé la voix du peuple",
          "lat": 12.420316,
          "lon": -1.53936
        },
        {
          "name": "Lycée Lumière du faso",
          "lat": 12.421995,
          "lon": -1.535421
        },
        {
          "name": "Lycée Bangporé",
          "lat": 12.42439,
          "lon": -1.534947
        },
        {
          "name": "Collège privé charles peguy",
          "lat": 12.401488,
          "lon": -1.514111
        },
        {
          "name": "Grand Seminaire St Jean",
          "lat": 12.409147,
          "lon": -1.55042
        },
        {
          "name": "Ecole Wendenda",
          "lat": 12.396216,
          "lon": -1.549352
        },
        {
          "name": "Complexe scolaire béniso",
          "lat": 12.39687,
          "lon": -1.539382
        },
        {
          "name": "Ecole Elnadia",
          "lat": 12.401909,
          "lon": -1.537549
        },
        {
          "name": "Ecoole Elnadia",
          "lat": 12.401955,
          "lon": -1.537571
        },
        {
          "name": "Complexe scolaire de l´Église Pentecôte",
          "lat": 12.412945,
          "lon": -1.506042
        },
        {
          "name": "Lycée d´excellence Nour Alanour",
          "lat": 12.415838,
          "lon": -1.502988
        },
        {
          "name": "Ecole Somgandé B D",
          "lat": 12.412422,
          "lon": -1.499164
        },
        {
          "name": "Ecole Somgandé A C",
          "lat": 12.411208,
          "lon": -1.490945
        },
        {
          "name": "Université Libre du Burkina",
          "lat": 12.399056,
          "lon": -1.508356
        },
        {
          "name": "Ecole Kiswensida",
          "lat": 12.399873,
          "lon": -1.508073
        },
        {
          "name": "Complexe scolaire Wend-kuuni Nooma",
          "lat": 12.31211,
          "lon": -1.614716
        },
        {
          "name": "Ecole primaire",
          "lat": 12.299276,
          "lon": -1.601747
        },
        {
          "name": "Lycée B. Evangélique",
          "lat": 12.346885,
          "lon": -1.583969
        },
        {
          "name": "Institut National des Sports",
          "lat": 12.365786,
          "lon": -1.556381
        },
        {
          "name": "Lycée privé Daroul (education islamique)",
          "lat": 12.363312,
          "lon": -1.553437
        },
        {
          "name": "Lycée Privé Noureine",
          "lat": 12.363502,
          "lon": -1.552511
        },
        {
          "name": "Lycée Songtaaba",
          "lat": 12.358998,
          "lon": -1.557592
        },
        {
          "name": "Complexe scolaire Saint-Pierre de Kouka",
          "lat": 12.356713,
          "lon": -1.555076
        },
        {
          "name": "les Osep",
          "lat": 12.35812,
          "lon": -1.552727
        },
        {
          "name": "IST",
          "lat": 12.357366,
          "lon": -1.551174
        },
        {
          "name": "Collège Wend Manegda",
          "lat": 12.350982,
          "lon": -1.553976
        },
        {
          "name": "Lycée Mixte de Goughin",
          "lat": 12.347655,
          "lon": -1.551169
        },
        {
          "name": "Centre Austro-Burkinabè",
          "lat": 12.348535,
          "lon": -1.558199
        },
        {
          "name": "Ecole Gounghin Nord C",
          "lat": 12.358419,
          "lon": -1.555321
        },
        {
          "name": "École Primaire \"Nelson Mandela\"",
          "lat": 12.334438,
          "lon": -1.55248
        },
        {
          "name": "Gueswindé",
          "lat": 12.328357,
          "lon": -1.554954
        },
        {
          "name": "Lycée LTPAD",
          "lat": 12.328499,
          "lon": -1.553099
        },
        {
          "name": "collège privé Benaja",
          "lat": 12.32403,
          "lon": -1.552836
        },
        {
          "name": "École Pissy A B",
          "lat": 12.334456,
          "lon": -1.577202
        },
        {
          "name": "École primaire privée Boawendson",
          "lat": 12.333068,
          "lon": -1.583616
        },
        {
          "name": "École primaire privée Adventiste Elysée",
          "lat": 12.332394,
          "lon": -1.584373
        },
        {
          "name": "Lycée polytechnique privée du Kadiogo ( LPPK)",
          "lat": 12.333881,
          "lon": -1.603488
        },
        {
          "name": "École primaire publique Sondogo B",
          "lat": 12.321922,
          "lon": -1.60373
        },
        {
          "name": "Complexe scolaire Al Fourquane 2",
          "lat": 12.312441,
          "lon": -1.604299
        },
        {
          "name": "Ecole primaire Wendenmi de Sandogo",
          "lat": 12.313235,
          "lon": -1.60523
        },
        {
          "name": "Ecole primaire",
          "lat": 12.312622,
          "lon": -1.607129
        },
        {
          "name": "Complexe scolaire Tigre Evangelique",
          "lat": 12.31295,
          "lon": -1.608718
        },
        {
          "name": "Garderie municipal",
          "lat": 12.347676,
          "lon": -1.576904
        },
        {
          "name": "Unnamed School",
          "lat": 12.315172,
          "lon": -1.613974
        },
        {
          "name": "CEG Marien III",
          "lat": 12.351809,
          "lon": -1.601386
        },
        {
          "name": "École Wend Panga",
          "lat": 12.347275,
          "lon": -1.576021
        },
        {
          "name": "École Primaire Noom Wende",
          "lat": 12.344906,
          "lon": -1.58065
        },
        {
          "name": "Groupe scolaire Omar",
          "lat": 12.336651,
          "lon": -1.576868
        },
        {
          "name": "École Sainte Famille",
          "lat": 12.337526,
          "lon": -1.577439
        },
        {
          "name": "École Ste Famille",
          "lat": 12.337485,
          "lon": -1.577326
        },
        {
          "name": "École la fraternité",
          "lat": 12.338751,
          "lon": -1.574677
        },
        {
          "name": "Lycée Parents d´Élèves",
          "lat": 12.340416,
          "lon": -1.569572
        },
        {
          "name": "Groupe Scolaire Jeunesse Pour Christ",
          "lat": 12.331634,
          "lon": -1.562576
        },
        {
          "name": "Complexe Scolaire Parents d´Élèves",
          "lat": 12.341041,
          "lon": -1.569683
        },
        {
          "name": "Groupe scolaire Baoneere",
          "lat": 12.346385,
          "lon": -1.568843
        },
        {
          "name": "École Franco-Arabe",
          "lat": 12.341689,
          "lon": -1.566107
        },
        {
          "name": "École Goughin Sud A B C",
          "lat": 12.34576,
          "lon": -1.552254
        },
        {
          "name": "Collège Saint- Jean",
          "lat": 12.343049,
          "lon": -1.552015
        },
        {
          "name": "École Wendmanagda",
          "lat": 12.339479,
          "lon": -1.554362
        },
        {
          "name": "École Managbzanga",
          "lat": 12.339034,
          "lon": -1.551271
        },
        {
          "name": "Lycée Municipal Venegré",
          "lat": 12.337912,
          "lon": -1.560749
        },
        {
          "name": "École Ragnim Kamba",
          "lat": 12.338117,
          "lon": -1.566363
        },
        {
          "name": "École des Sourds-Muets",
          "lat": 12.34207,
          "lon": -1.570661
        },
        {
          "name": "Saïd ben Ahmad",
          "lat": 12.397505,
          "lon": -1.618613
        },
        {
          "name": "Lycée Privé Thomas SANKARA",
          "lat": 12.321649,
          "lon": -1.464523
        },
        {
          "name": "Ecole primaire",
          "lat": 12.279549,
          "lon": -1.536002
        },
        {
          "name": "Ecole primaire mission apostolique",
          "lat": 12.310755,
          "lon": -1.539345
        },
        {
          "name": "cours privé la novation",
          "lat": 12.311091,
          "lon": -1.537972
        },
        {
          "name": "Préscolaire ASECD",
          "lat": 12.319448,
          "lon": -1.54995
        },
        {
          "name": "Lycée des Nations",
          "lat": 12.317612,
          "lon": -1.535106
        },
        {
          "name": "Lycée Universalis",
          "lat": 12.318809,
          "lon": -1.534776
        },
        {
          "name": "Ecole primaire georges Namoano",
          "lat": 12.322454,
          "lon": -1.535391
        },
        {
          "name": "Collège Saint Michel",
          "lat": 12.319425,
          "lon": -1.529953
        },
        {
          "name": "Ecole Waog Taaba",
          "lat": 12.318417,
          "lon": -1.527087
        },
        {
          "name": "École \"Neb La Bumbu\"",
          "lat": 12.313708,
          "lon": -1.529966
        },
        {
          "name": "École Nazemsé",
          "lat": 12.323369,
          "lon": -1.522603
        },
        {
          "name": "Institut du ministère biblique",
          "lat": 12.324108,
          "lon": -1.522607
        },
        {
          "name": "Cefoss",
          "lat": 12.320976,
          "lon": -1.51489
        },
        {
          "name": "Ecole Naba Ambga",
          "lat": 12.318568,
          "lon": -1.511959
        },
        {
          "name": "les lauréats",
          "lat": 12.305173,
          "lon": -1.514769
        },
        {
          "name": "Université Virtuelle du Burkina Faso",
          "lat": 12.308164,
          "lon": -1.50339
        },
        {
          "name": "Université Virtuelle du Burkina",
          "lat": 12.308094,
          "lon": -1.503377
        },
        {
          "name": "Ecole Sin-Yiri C D",
          "lat": 12.343579,
          "lon": -1.488896
        },
        {
          "name": "Goumba Lankoundé",
          "lat": 12.344533,
          "lon": -1.500311
        },
        {
          "name": "Ecole La Paix",
          "lat": 12.326197,
          "lon": -1.547498
        },
        {
          "name": "Ecole privée la paix",
          "lat": 12.325899,
          "lon": -1.548322
        },
        {
          "name": "Ecole de Formation Tikouilgha Samuel Kiendrebeogo",
          "lat": 12.33074,
          "lon": -1.545307
        },
        {
          "name": "ISGE",
          "lat": 12.33907,
          "lon": -1.497945
        },
        {
          "name": "Gueswende Bala A et B",
          "lat": 12.319148,
          "lon": -1.522235
        },
        {
          "name": "Ecole primaire",
          "lat": 12.285875,
          "lon": -1.547152
        },
        {
          "name": "Ecole primaire",
          "lat": 12.286308,
          "lon": -1.543348
        },
        {
          "name": "Ecole primaire",
          "lat": 12.286263,
          "lon": -1.542206
        },
        {
          "name": "Ecole primaire",
          "lat": 12.285301,
          "lon": -1.540571
        },
        {
          "name": "Ecole",
          "lat": 12.285684,
          "lon": -1.535702
        },
        {
          "name": "Complexe Scolaire NIMBI",
          "lat": 12.304144,
          "lon": -1.545921
        },
        {
          "name": "Ecole primaire",
          "lat": 12.288043,
          "lon": -1.546058
        },
        {
          "name": "Ecole primaire",
          "lat": 12.294151,
          "lon": -1.54286
        },
        {
          "name": "Ecole primaire",
          "lat": 12.29352,
          "lon": -1.545567
        },
        {
          "name": "Groupe scolaire Gueswend-Bala",
          "lat": 12.297341,
          "lon": -1.535176
        },
        {
          "name": "Ecole",
          "lat": 12.290063,
          "lon": -1.530919
        },
        {
          "name": "Ecole primaire Managsomde",
          "lat": 12.3097,
          "lon": -1.530299
        },
        {
          "name": "Ecole",
          "lat": 12.287099,
          "lon": -1.535385
        },
        {
          "name": "Groupe scolaire international Madina",
          "lat": 12.34036,
          "lon": -1.548302
        },
        {
          "name": "Groupe Scolaire CEFISE",
          "lat": 12.345932,
          "lon": -1.541448
        },
        {
          "name": "École Cissin Nord",
          "lat": 12.341377,
          "lon": -1.541564
        },
        {
          "name": "École Samandin A B",
          "lat": 12.34644,
          "lon": -1.532768
        },
        {
          "name": "École Nationale des Télécommunications",
          "lat": 12.341953,
          "lon": -1.527913
        },
        {
          "name": "Unnamed School",
          "lat": 12.334734,
          "lon": -1.534227
        },
        {
          "name": "Office Central des Examens et Concours",
          "lat": 12.340298,
          "lon": -1.528642
        },
        {
          "name": "Lycée Saint-Joseph",
          "lat": 12.339212,
          "lon": -1.526887
        },
        {
          "name": "École Cité An II",
          "lat": 12.342503,
          "lon": -1.523603
        },
        {
          "name": "Garderie populaire",
          "lat": 12.346177,
          "lon": -1.524056
        },
        {
          "name": "École Kamsonghin Sud",
          "lat": 12.349467,
          "lon": -1.525247
        },
        {
          "name": "Lycée Zémaguida",
          "lat": 12.340287,
          "lon": -1.509622
        },
        {
          "name": "Cours Professionnel de l´Innovation",
          "lat": 12.350018,
          "lon": -1.522308
        },
        {
          "name": "École des Sciences et Techniques Informatiques",
          "lat": 12.353861,
          "lon": -1.523635
        },
        {
          "name": "Groupe Scolaire \"Le Roserale\"",
          "lat": 12.350221,
          "lon": -1.533206
        },
        {
          "name": "Groupe Scolaire Camara Laye",
          "lat": 12.35006,
          "lon": -1.536765
        },
        {
          "name": "Les Flamboyants",
          "lat": 12.352318,
          "lon": -1.538975
        },
        {
          "name": "Collège Wend Yam",
          "lat": 12.346677,
          "lon": -1.541019
        },
        {
          "name": "École Nong-Taaba",
          "lat": 12.347389,
          "lon": -1.544025
        },
        {
          "name": "École Camara Laye",
          "lat": 12.349051,
          "lon": -1.544037
        },
        {
          "name": "Lycée Privée Yenega",
          "lat": 12.351307,
          "lon": -1.549356
        },
        {
          "name": "Crèche moderne privée \"Les Angelots\"",
          "lat": 12.351197,
          "lon": -1.548582
        },
        {
          "name": "École Raoul Follereau",
          "lat": 12.3495,
          "lon": -1.546011
        },
        {
          "name": "Ecole des Grâces",
          "lat": 12.355545,
          "lon": -1.548812
        },
        {
          "name": "Lycée Zymaguida",
          "lat": 12.340238,
          "lon": -1.509708
        },
        {
          "name": "École Faso Baara",
          "lat": 12.338852,
          "lon": -1.504267
        },
        {
          "name": "Ecole Delwendé",
          "lat": 12.337829,
          "lon": -1.514272
        },
        {
          "name": "Ecole Patte D'Oie A et B",
          "lat": 12.329031,
          "lon": -1.517304
        },
        {
          "name": "Ecole Maternelle et Primaire Privée La Pépinière",
          "lat": 12.329051,
          "lon": -1.514066
        },
        {
          "name": "Complexe scolaire Aurore",
          "lat": 12.330699,
          "lon": -1.505625
        },
        {
          "name": "Instutit Africain de Management",
          "lat": 12.327015,
          "lon": -1.502093
        },
        {
          "name": "complexe scolaire Guestaaba I",
          "lat": 12.326316,
          "lon": -1.504691
        },
        {
          "name": "Groupe scolaire les violettes",
          "lat": 12.323792,
          "lon": -1.509629
        },
        {
          "name": "Groupe scolaire \"Les Violettes\"",
          "lat": 12.324144,
          "lon": -1.510411
        },
        {
          "name": "École Nayelgué",
          "lat": 12.341223,
          "lon": -1.547837
        },
        {
          "name": "École primaire privée Saint Jean",
          "lat": 12.34286,
          "lon": -1.550413
        },
        {
          "name": "Groupe scolaire Saint Jean",
          "lat": 12.344506,
          "lon": -1.550708
        },
        {
          "name": "Lycée Privé Ridwane",
          "lat": 12.343703,
          "lon": -1.545569
        },
        {
          "name": "Les Leaders de demain",
          "lat": 12.334773,
          "lon": -1.539627
        },
        {
          "name": "Groupe Scolaire Les Violettes",
          "lat": 12.332533,
          "lon": -1.524006
        },
        {
          "name": "École maternelle et primaire Acajou",
          "lat": 12.331742,
          "lon": -1.522639
        },
        {
          "name": "ISPP",
          "lat": 12.329554,
          "lon": -1.524464
        },
        {
          "name": "College Daroul Houda",
          "lat": 12.330006,
          "lon": -1.525677
        },
        {
          "name": "École Maternelle Primaire Privée Nambita",
          "lat": 12.332627,
          "lon": -1.532142
        },
        {
          "name": "Ecole Patrice Lumumba",
          "lat": 12.330306,
          "lon": -1.533431
        },
        {
          "name": "Centre Éveil Et Éducation Pescolaire Privée",
          "lat": 12.326021,
          "lon": -1.53568
        },
        {
          "name": "Collège Trikoni",
          "lat": 12.32524,
          "lon": -1.54185
        },
        {
          "name": "Lycee Privé Tarwende",
          "lat": 12.336771,
          "lon": -1.540601
        },
        {
          "name": "École GueswendBala",
          "lat": 12.324513,
          "lon": -1.522667
        },
        {
          "name": "Lycée Saint-Exupéry de Ouagadougou",
          "lat": 12.364411,
          "lon": -1.524272
        },
        {
          "name": "Collège La Salle",
          "lat": 12.364209,
          "lon": -1.525571
        },
        {
          "name": "Ecole de la Croix-Rouge",
          "lat": 12.369106,
          "lon": -1.514775
        },
        {
          "name": "Cours Privé Le Creuset",
          "lat": 12.368568,
          "lon": -1.514555
        },
        {
          "name": "Ecole de la Croix-Rouge",
          "lat": 12.368888,
          "lon": -1.514552
        },
        {
          "name": "Lycée Gal-Yam",
          "lat": 12.365163,
          "lon": -1.5154
        },
        {
          "name": "École Kalgondin",
          "lat": 12.354942,
          "lon": -1.505412
        },
        {
          "name": "College d'Enseignement Comercial",
          "lat": 12.350562,
          "lon": -1.499618
        },
        {
          "name": "Lycée privé l'axe du succès",
          "lat": 12.347384,
          "lon": -1.500904
        },
        {
          "name": "Centre d'éveil et d'éducation préscolaire",
          "lat": 12.348032,
          "lon": -1.498473
        },
        {
          "name": "IAM Ouagadougou",
          "lat": 12.346852,
          "lon": -1.494117
        },
        {
          "name": "Centre municipal de formation artisanal",
          "lat": 12.348252,
          "lon": -1.488488
        },
        {
          "name": "Ecole Sin-Yiri A B",
          "lat": 12.352558,
          "lon": -1.486067
        },
        {
          "name": "École Baoghin A B",
          "lat": 12.369244,
          "lon": -1.5386
        },
        {
          "name": "École Wend La Mita",
          "lat": 12.356481,
          "lon": -1.488194
        },
        {
          "name": "Juvenat Saint Camille",
          "lat": 12.360633,
          "lon": -1.486251
        },
        {
          "name": "Ecole primaire St Michel de Dagnoin",
          "lat": 12.361916,
          "lon": -1.48739
        },
        {
          "name": "École du Secteur 29 Dagnoen ABC",
          "lat": 12.363756,
          "lon": -1.492487
        },
        {
          "name": "ISIG",
          "lat": 12.360223,
          "lon": -1.498398
        },
        {
          "name": "École Koulouba",
          "lat": 12.365183,
          "lon": -1.510059
        },
        {
          "name": "Faoudzoud Daraine",
          "lat": 12.365405,
          "lon": -1.545753
        },
        {
          "name": "École Nationale de la Police",
          "lat": 12.368753,
          "lon": -1.547029
        },
        {
          "name": "École Gounghin Nord B",
          "lat": 12.357938,
          "lon": -1.550062
        },
        {
          "name": "Crèche/CEEP La Colombe",
          "lat": 12.354688,
          "lon": -1.539994
        },
        {
          "name": "École Bambi",
          "lat": 12.355286,
          "lon": -1.539459
        },
        {
          "name": "Centre de Formation Professionnelle Religieuse",
          "lat": 12.360207,
          "lon": -1.535502
        },
        {
          "name": "École Primaire Bilbalogo",
          "lat": 12.362517,
          "lon": -1.535623
        },
        {
          "name": "Université internationale libre",
          "lat": 12.359703,
          "lon": -1.54328
        },
        {
          "name": "My school ENTP",
          "lat": 12.360436,
          "lon": -1.54287
        },
        {
          "name": "Ferme Onesime",
          "lat": 12.36052,
          "lon": -1.545871
        },
        {
          "name": "Ecole Tanvili",
          "lat": 12.359259,
          "lon": -1.54635
        },
        {
          "name": "Complexe scolaire Shalom et savoir (C3S)",
          "lat": 12.359393,
          "lon": -1.550828
        },
        {
          "name": "Lycée Technique Charles Lavigerie",
          "lat": 12.363076,
          "lon": -1.525652
        },
        {
          "name": "École Apostolique",
          "lat": 12.363737,
          "lon": -1.545411
        },
        {
          "name": "Lycée pprivé Wennenso fraternité",
          "lat": 12.362958,
          "lon": -1.545398
        },
        {
          "name": "Complexe scolaire Michel Bendogo",
          "lat": 12.363008,
          "lon": -1.546419
        },
        {
          "name": "Lycée privé Tegawendé",
          "lat": 12.362475,
          "lon": -1.545462
        },
        {
          "name": "Les graces 3",
          "lat": 12.363065,
          "lon": -1.543374
        },
        {
          "name": "Centre d'éveil et d'éducation préscolaire privé",
          "lat": 12.36345,
          "lon": -1.544516
        },
        {
          "name": "Lyée privé mixte Montaigne",
          "lat": 12.364004,
          "lon": -1.542786
        },
        {
          "name": "Ecole",
          "lat": 12.366073,
          "lon": -1.544037
        },
        {
          "name": "Lycée mixte Montaigne",
          "lat": 12.366968,
          "lon": -1.545592
        },
        {
          "name": "Ecole du camp",
          "lat": 12.369843,
          "lon": -1.53315
        },
        {
          "name": "Lycée Marien N´Gouabi",
          "lat": 12.366784,
          "lon": -1.533836
        },
        {
          "name": "University of United Popular Nations U.U.P.N.",
          "lat": 12.364647,
          "lon": -1.533776
        },
        {
          "name": "Lycée Municipal Bambata",
          "lat": 12.358485,
          "lon": -1.532104
        },
        {
          "name": "École de Santé",
          "lat": 12.360084,
          "lon": -1.527748
        },
        {
          "name": "École Les Grâces",
          "lat": 12.361189,
          "lon": -1.549652
        },
        {
          "name": "Ecole du château",
          "lat": 12.354233,
          "lon": -1.481987
        },
        {
          "name": "Ecole du château",
          "lat": 12.354069,
          "lon": -1.482025
        },
        {
          "name": "Ecole du château",
          "lat": 12.354225,
          "lon": -1.482211
        },
        {
          "name": "CEFIG",
          "lat": 12.361903,
          "lon": -1.498147
        },
        {
          "name": "Ecole soeurs apotre du sacre coeur;Essakane SA",
          "lat": 12.361342,
          "lon": -1.499137
        },
        {
          "name": "EFEC",
          "lat": 12.362806,
          "lon": -1.498258
        },
        {
          "name": "École 1200 Logements",
          "lat": 12.362048,
          "lon": -1.495955
        },
        {
          "name": "Centre de Formation Saint-Camille",
          "lat": 12.365903,
          "lon": -1.495725
        },
        {
          "name": "Ecole Bélemtissé",
          "lat": 12.367268,
          "lon": -1.499414
        },
        {
          "name": "Cours ATI A-B",
          "lat": 12.369324,
          "lon": -1.501255
        },
        {
          "name": "English Language Center",
          "lat": 12.368868,
          "lon": -1.497819
        },
        {
          "name": "Université Tunisienne Internationale",
          "lat": 12.369005,
          "lon": -1.493858
        },
        {
          "name": "Groupe scolaire Yiguia-Bangré",
          "lat": 12.360233,
          "lon": -1.47682
        },
        {
          "name": "Frères des écoles chrétiennes",
          "lat": 12.359101,
          "lon": -1.47018
        },
        {
          "name": "Ecole du château",
          "lat": 12.354476,
          "lon": -1.481995
        },
        {
          "name": "Complexe Scolaire Boa Yam",
          "lat": 12.366511,
          "lon": -1.468868
        },
        {
          "name": "Ecole des Métiers Bqngrée",
          "lat": 12.366385,
          "lon": -1.474355
        },
        {
          "name": "Groupe scolaire Boa Yam",
          "lat": 12.366371,
          "lon": -1.468313
        },
        {
          "name": "Unnamed School",
          "lat": 12.360413,
          "lon": -1.456774
        },
        {
          "name": "Unnamed School",
          "lat": 12.360688,
          "lon": -1.459167
        },
        {
          "name": "Groupe scolaire \"Bon Berger\"",
          "lat": 12.351007,
          "lon": -1.475558
        },
        {
          "name": "Institut El Nour Franco Arabe",
          "lat": 12.355647,
          "lon": -1.470833
        },
        {
          "name": "IDS",
          "lat": 12.357001,
          "lon": -1.478728
        },
        {
          "name": "Institut des Sciences",
          "lat": 12.357319,
          "lon": -1.480559
        },
        {
          "name": "Ecole du château",
          "lat": 12.35492,
          "lon": -1.481621
        },
        {
          "name": "Ecole du château",
          "lat": 12.354796,
          "lon": -1.48155
        },
        {
          "name": "Ecole du château",
          "lat": 12.354773,
          "lon": -1.481748
        },
        {
          "name": "Ecole Manegda",
          "lat": 12.360025,
          "lon": -1.469593
        },
        {
          "name": "Ecole",
          "lat": 12.294369,
          "lon": -1.576539
        },
        {
          "name": "Ecole primaire",
          "lat": 12.289639,
          "lon": -1.575028
        },
        {
          "name": "Ecole primaire",
          "lat": 12.298971,
          "lon": -1.571627
        },
        {
          "name": "Ecole primaire",
          "lat": 12.298656,
          "lon": -1.561791
        },
        {
          "name": "Ecole",
          "lat": 12.297482,
          "lon": -1.558146
        },
        {
          "name": "Ecole",
          "lat": 12.296392,
          "lon": -1.553243
        },
        {
          "name": "Ecole primaire",
          "lat": 12.290119,
          "lon": -1.565781
        },
        {
          "name": "Complexe scolaire Saint Moïse",
          "lat": 12.316655,
          "lon": -1.597625
        },
        {
          "name": "Ecole primaire",
          "lat": 12.311699,
          "lon": -1.582901
        },
        {
          "name": "Centre Don Bosco",
          "lat": 12.305315,
          "lon": -1.553517
        },
        {
          "name": "Ecole",
          "lat": 12.303671,
          "lon": -1.577309
        },
        {
          "name": "Collège Hakili",
          "lat": 12.303443,
          "lon": -1.577899
        },
        {
          "name": "Ecole primaire",
          "lat": 12.301956,
          "lon": -1.582709
        },
        {
          "name": "Ecole primaire Lumière",
          "lat": 12.298186,
          "lon": -1.582589
        },
        {
          "name": "Ecole",
          "lat": 12.286019,
          "lon": -1.554539
        },
        {
          "name": "Ecole",
          "lat": 12.291792,
          "lon": -1.588118
        },
        {
          "name": "Ecole",
          "lat": 12.29455,
          "lon": -1.584791
        },
        {
          "name": "Ecole primaire Nakoglob-Zanga",
          "lat": 12.295715,
          "lon": -1.583964
        },
        {
          "name": "Ecole primaire Le Savoir",
          "lat": 12.298238,
          "lon": -1.583807
        },
        {
          "name": "Ecole",
          "lat": 12.297171,
          "lon": -1.588288
        },
        {
          "name": "Ecole",
          "lat": 12.29531,
          "lon": -1.595807
        },
        {
          "name": "Ecole",
          "lat": 12.29167,
          "lon": -1.590207
        },
        {
          "name": "Ecole primaire",
          "lat": 12.284362,
          "lon": -1.578572
        },
        {
          "name": "Ecole primaire",
          "lat": 12.285706,
          "lon": -1.577697
        },
        {
          "name": "Ecole primaire Hamoael",
          "lat": 12.304381,
          "lon": -1.583858
        },
        {
          "name": "Ecole primaire",
          "lat": 12.308473,
          "lon": -1.598859
        },
        {
          "name": "Ecole primaire",
          "lat": 12.3011,
          "lon": -1.599485
        },
        {
          "name": "Ecole primaire",
          "lat": 12.304195,
          "lon": -1.593928
        },
        {
          "name": "Ecole primaire",
          "lat": 12.303641,
          "lon": -1.590071
        },
        {
          "name": "Ecole primaire Saint Roger",
          "lat": 12.302649,
          "lon": -1.586827
        },
        {
          "name": "Ecole primaire privé Man Daabo",
          "lat": 12.37795,
          "lon": -1.52341
        },
        {
          "name": "La Bénédiction",
          "lat": 12.31065,
          "lon": -1.60841
        },
        {
          "name": "IAM Ouagadougou",
          "lat": 12.34685,
          "lon": -1.49412
        },
        {
          "name": "Belemtissé 3",
          "lat": 12.37035,
          "lon": -1.49858
        },
        {
          "name": "Complexe scolaire Saint Moïse",
          "lat": 12.31676,
          "lon": -1.59755
        },
        {
          "name": "Lycée privé Daroul (education islamique)",
          "lat": 12.36332,
          "lon": -1.55348
        },
        {
          "name": "Lycée Technique de Ouagadougou",
          "lat": 12.3819,
          "lon": -1.49768
        },
        {
          "name": "Gueswende Bala A et B",
          "lat": 12.31915,
          "lon": -1.52224
        },
        {
          "name": "Ecole primaire française Saint-Exupéry",
          "lat": 12.37042,
          "lon": -1.51785
        },
        {
          "name": "Lycée BOGODOGO de Ouagadougou",
          "lat": 12.381,
          "lon": -1.5065
        },
        {
          "name": "Collège La Salle",
          "lat": 12.36422,
          "lon": -1.52551
        },
        {
          "name": "Groupe Scolaire Camara Laye",
          "lat": 12.35005,
          "lon": -1.53676
        },
        {
          "name": "Lycée Nelson Mandela",
          "lat": 12.37643,
          "lon": -1.51493
        },
        {
          "name": "Lycée privé la voix du peuple",
          "lat": 12.42029,
          "lon": -1.53931
        },
        {
          "name": "Institut panafricain d'étude et de recherche sur les médias, l'information et la communication",
          "lat": 12.38185,
          "lon": -1.46733
        },
        {
          "name": "Ecole Sin-Yiri A B",
          "lat": 12.35258,
          "lon": -1.48602
        },
        {
          "name": "École GueswendBala",
          "lat": 12.32446,
          "lon": -1.52262
        },
        {
          "name": "ENAREF",
          "lat": 12.39179,
          "lon": -1.47954
        },
        {
          "name": "École Nabonswendé",
          "lat": 12.3897,
          "lon": -1.47986
        },
        {
          "name": "ecole Wayalgin C",
          "lat": 12.39884,
          "lon": -1.48006
        },
        {
          "name": "Groupe scolaire la source",
          "lat": 12.40186,
          "lon": -1.47674
        },
        {
          "name": "École Internationale",
          "lat": 12.3801,
          "lon": -1.4894
        },
        {
          "name": "École Franco-arabe",
          "lat": 12.3805,
          "lon": -1.48767
        },
        {
          "name": "Collège Horizon International",
          "lat": 12.37954,
          "lon": -1.48818
        },
        {
          "name": "École de l´amitié",
          "lat": 12.38463,
          "lon": -1.48764
        },
        {
          "name": "Groupe scolaire Yiguia-Bangré",
          "lat": 12.36026,
          "lon": -1.47681
        },
        {
          "name": "Groupe scolaire Omar",
          "lat": 12.33665,
          "lon": -1.57686
        },
        {
          "name": "ISPP",
          "lat": 12.32952,
          "lon": -1.5244
        },
        {
          "name": "Lycée Universalis",
          "lat": 12.31884,
          "lon": -1.53492
        },
        {
          "name": "Ecole Patrice Lumumba",
          "lat": 12.33025,
          "lon": -1.53344
        },
        {
          "name": "Complexe scolaire Saint-Pierre de Kouka",
          "lat": 12.35665,
          "lon": -1.55514
        },
        {
          "name": "Lycée des Nations",
          "lat": 12.31759,
          "lon": -1.53497
        },
        {
          "name": "Lycée Saint-Joseph",
          "lat": 12.33926,
          "lon": -1.52691
        },
        {
          "name": "Office Central des Examens et Concours",
          "lat": 12.34028,
          "lon": -1.52872
        },
        {
          "name": "École Kamsonghin Sud",
          "lat": 12.34933,
          "lon": -1.52497
        },
        {
          "name": "Ecole Trame d´accueil",
          "lat": 12.38313,
          "lon": -1.45538
        },
        {
          "name": "Ecole Manegda",
          "lat": 12.35991,
          "lon": -1.46981
        },
        {
          "name": "École Kalgondin",
          "lat": 12.35496,
          "lon": -1.50539
        },
        {
          "name": "Université Joseph Ki-Zerbo de Ouagadougou",
          "lat": 12.37935,
          "lon": -1.50076
        },
        {
          "name": "École Nationale de la Police",
          "lat": 12.36874,
          "lon": -1.54705
        },
        {
          "name": "Juvenat",
          "lat": 12.37739,
          "lon": -1.47515
        },
        {
          "name": "École Tabtinga",
          "lat": 12.38016,
          "lon": -1.46145
        },
        {
          "name": "Centre Islamique \"El Nour\"",
          "lat": 12.3821,
          "lon": -1.46053
        },
        {
          "name": "Lycée Philippe Zinda Kaboré",
          "lat": 12.37468,
          "lon": -1.51798
        },
        {
          "name": "Lycée Marien N´Gouabi",
          "lat": 12.36663,
          "lon": -1.53359
        },
        {
          "name": "Collège de Formation Technique",
          "lat": 12.37559,
          "lon": -1.51656
        },
        {
          "name": "École Paspanga A et B",
          "lat": 12.37764,
          "lon": -1.51755
        },
        {
          "name": "École 1200 Logements",
          "lat": 12.36205,
          "lon": -1.49595
        },
        {
          "name": "École Belemtissé",
          "lat": 12.36736,
          "lon": -1.4994
        },
        {
          "name": "École Wend La Mita",
          "lat": 12.35633,
          "lon": -1.48832
        },
        {
          "name": "École Communale de Zogona",
          "lat": 12.37673,
          "lon": -1.49475
        },
        {
          "name": "2iE",
          "lat": 12.37913,
          "lon": -1.50355
        },
        {
          "name": "Lycée LTPAD",
          "lat": 12.32825,
          "lon": -1.55309
        },
        {
          "name": "École Primaire \"Nelson Mandela\"",
          "lat": 12.33437,
          "lon": -1.55243
        },
        {
          "name": "Centre de Formation Professionnelle Religieuse",
          "lat": 12.36014,
          "lon": -1.53542
        },
        {
          "name": "Ecole franco-arabe",
          "lat": 12.40786,
          "lon": -1.50947
        },
        {
          "name": "ecole primaire dapoya 2",
          "lat": 12.38165,
          "lon": -1.51883
        },
        {
          "name": "Groupe scolaire Baoneere",
          "lat": 12.34631,
          "lon": -1.56883
        },
        {
          "name": "Groupe Scolaire \"Le Roserale\"",
          "lat": 12.35008,
          "lon": -1.53334
        },
        {
          "name": "École publique Nongomikim",
          "lat": 12.37254,
          "lon": -1.57275
        },
        {
          "name": "Lycée Municipal Venegré",
          "lat": 12.33792,
          "lon": -1.56075
        },
        {
          "name": "École Managbzanga",
          "lat": 12.33907,
          "lon": -1.55122
        },
        {
          "name": "École Kologh-Naba",
          "lat": 12.38114,
          "lon": -1.54865
        },
        {
          "name": "École larlé A B",
          "lat": 12.37649,
          "lon": -1.53606
        },
        {
          "name": "Lycée Dimdolossom",
          "lat": 12.37758,
          "lon": -1.53575
        },
        {
          "name": "Garderie",
          "lat": 12.38179,
          "lon": -1.52705
        },
        {
          "name": "École Bass-Yiré",
          "lat": 12.38761,
          "lon": -1.58257
        },
        {
          "name": "Ecole Elnadia",
          "lat": 12.40191,
          "lon": -1.53755
        },
        {
          "name": "Les cours privés de la Solidarité",
          "lat": 12.37714,
          "lon": -1.57174
        },
        {
          "name": "École Faso Baara",
          "lat": 12.33893,
          "lon": -1.50421
        },
        {
          "name": "École Galiyam",
          "lat": 12.40569,
          "lon": -1.57966
        },
        {
          "name": "École publique Ouogodogo C D",
          "lat": 12.37275,
          "lon": -1.56689
        },
        {
          "name": "Ecole Kossoghin",
          "lat": 12.40093,
          "lon": -1.55429
        },
        {
          "name": "Collège Protestant",
          "lat": 12.3925,
          "lon": -1.51865
        },
        {
          "name": "Ecole Somgandé A C",
          "lat": 12.41121,
          "lon": -1.49095
        },
        {
          "name": "École \"Sabin Barrage\" A B C",
          "lat": 12.39637,
          "lon": -1.51398
        },
        {
          "name": "Université Libre du Burkina",
          "lat": 12.39906,
          "lon": -1.50818
        },
        {
          "name": "Cours ATI A-B",
          "lat": 12.36932,
          "lon": -1.50125
        },
        {
          "name": "CEFIG",
          "lat": 12.3619,
          "lon": -1.49815
        },
        {
          "name": "École Goughin Sud A B C",
          "lat": 12.34576,
          "lon": -1.55225
        },
        {
          "name": "Lycée privé Noureine",
          "lat": 12.37125,
          "lon": -1.5579
        },
        {
          "name": "Ecole primaire mission apostolique",
          "lat": 12.31076,
          "lon": -1.53935
        },
        {
          "name": "Centre municipal de formation artisanal",
          "lat": 12.34825,
          "lon": -1.48849
        },
        {
          "name": "École Camara Laye",
          "lat": 12.34905,
          "lon": -1.54404
        },
        {
          "name": "École de Santé",
          "lat": 12.36008,
          "lon": -1.52775
        },
        {
          "name": "Ecole Maternelle et Primaire Privée La Pépinière",
          "lat": 12.32905,
          "lon": -1.51407
        },
        {
          "name": "lycée privé Sig Noghin",
          "lat": 12.40109,
          "lon": -1.57705
        },
        {
          "name": "École Les Grâces",
          "lat": 12.36119,
          "lon": -1.54965
        },
        {
          "name": "École Primaire Toecin A,B et C",
          "lat": 12.38585,
          "lon": -1.57795
        },
        {
          "name": "Ecole primaire",
          "lat": 12.27955,
          "lon": -1.536
        },
        {
          "name": "Ecole",
          "lat": 12.29748,
          "lon": -1.55815
        },
        {
          "name": "Ecole primaire",
          "lat": 12.28631,
          "lon": -1.54335
        },
        {
          "name": "Ecole primaire",
          "lat": 12.29928,
          "lon": -1.60175
        },
        {
          "name": "Unnamed School",
          "lat": 12.308624,
          "lon": -1.598846
        },
        {
          "name": "Unnamed School",
          "lat": 12.305618,
          "lon": -1.597203
        },
        {
          "name": "Unnamed School",
          "lat": 12.305597,
          "lon": -1.597368
        },
        {
          "name": "Unnamed School",
          "lat": 12.301163,
          "lon": -1.599294
        },
        {
          "name": "Unnamed School",
          "lat": 12.300591,
          "lon": -1.599789
        },
        {
          "name": "Unnamed School",
          "lat": 12.303749,
          "lon": -1.590049
        },
        {
          "name": "Unnamed School",
          "lat": 12.302745,
          "lon": -1.586838
        },
        {
          "name": "Unnamed School",
          "lat": 12.304848,
          "lon": -1.583844
        },
        {
          "name": "Unnamed School",
          "lat": 12.316444,
          "lon": -1.597946
        },
        {
          "name": "Unnamed School",
          "lat": 12.316192,
          "lon": -1.597955
        },
        {
          "name": "Unnamed School",
          "lat": 12.316238,
          "lon": -1.597508
        },
        {
          "name": "Unnamed School",
          "lat": 12.298844,
          "lon": -1.57151
        },
        {
          "name": "Unnamed School",
          "lat": 12.29888,
          "lon": -1.571808
        },
        {
          "name": "Unnamed School",
          "lat": 12.299067,
          "lon": -1.571561
        },
        {
          "name": "Unnamed School",
          "lat": 12.316285,
          "lon": -1.597093
        },
        {
          "name": "Unnamed School",
          "lat": 12.316554,
          "lon": -1.597088
        },
        {
          "name": "Unnamed School",
          "lat": 12.311402,
          "lon": -1.58238
        },
        {
          "name": "Unnamed School",
          "lat": 12.311989,
          "lon": -1.582444
        },
        {
          "name": "Unnamed School",
          "lat": 12.321224,
          "lon": -1.5746
        },
        {
          "name": "Unnamed School",
          "lat": 12.303803,
          "lon": -1.577153
        },
        {
          "name": "Unnamed School",
          "lat": 12.303831,
          "lon": -1.577483
        },
        {
          "name": "Unnamed School",
          "lat": 12.302941,
          "lon": -1.577755
        },
        {
          "name": "Unnamed School",
          "lat": 12.305586,
          "lon": -1.597463
        },
        {
          "name": "Unnamed School",
          "lat": 12.305562,
          "lon": -1.597594
        },
        {
          "name": "Unnamed School",
          "lat": 12.296673,
          "lon": -1.552636
        },
        {
          "name": "Unnamed School",
          "lat": 12.29699,
          "lon": -1.553011
        },
        {
          "name": "Unnamed School",
          "lat": 12.295631,
          "lon": -1.553377
        },
        {
          "name": "Unnamed School",
          "lat": 12.289801,
          "lon": -1.565972
        },
        {
          "name": "Unnamed School",
          "lat": 12.289774,
          "lon": -1.56564
        },
        {
          "name": "Unnamed School",
          "lat": 12.290359,
          "lon": -1.565586
        },
        {
          "name": "Unnamed School",
          "lat": 12.298307,
          "lon": -1.583658
        },
        {
          "name": "Unnamed School",
          "lat": 12.298178,
          "lon": -1.58364
        },
        {
          "name": "Unnamed School",
          "lat": 12.294268,
          "lon": -1.576702
        },
        {
          "name": "Unnamed School",
          "lat": 12.294225,
          "lon": -1.576388
        },
        {
          "name": "Unnamed School",
          "lat": 12.294589,
          "lon": -1.580959
        },
        {
          "name": "Unnamed School",
          "lat": 12.294339,
          "lon": -1.58101
        },
        {
          "name": "Unnamed School",
          "lat": 12.294706,
          "lon": -1.581122
        },
        {
          "name": "Unnamed School",
          "lat": 12.288373,
          "lon": -1.575929
        },
        {
          "name": "Unnamed School",
          "lat": 12.289825,
          "lon": -1.575043
        },
        {
          "name": "Unnamed School",
          "lat": 12.296326,
          "lon": -1.567535
        },
        {
          "name": "Unnamed School",
          "lat": 12.286154,
          "lon": -1.554763
        },
        {
          "name": "Unnamed School",
          "lat": 12.285912,
          "lon": -1.551058
        },
        {
          "name": "Unnamed School",
          "lat": 12.285989,
          "lon": -1.554815
        },
        {
          "name": "Unnamed School",
          "lat": 12.283824,
          "lon": -1.556906
        },
        {
          "name": "Unnamed School",
          "lat": 12.298305,
          "lon": -1.56181
        },
        {
          "name": "Unnamed School",
          "lat": 12.298959,
          "lon": -1.561725
        },
        {
          "name": "Unnamed School",
          "lat": 12.297913,
          "lon": -1.558331
        },
        {
          "name": "Unnamed School",
          "lat": 12.297447,
          "lon": -1.558101
        },
        {
          "name": "Unnamed School",
          "lat": 12.297226,
          "lon": -1.558103
        },
        {
          "name": "Unnamed School",
          "lat": 12.297891,
          "lon": -1.55804
        },
        {
          "name": "Unnamed School",
          "lat": 12.291519,
          "lon": -1.587973
        },
        {
          "name": "Unnamed School",
          "lat": 12.291467,
          "lon": -1.590233
        },
        {
          "name": "Unnamed School",
          "lat": 12.286265,
          "lon": -1.555362
        },
        {
          "name": "Unnamed School",
          "lat": 12.29606,
          "lon": -1.586341
        },
        {
          "name": "Unnamed School",
          "lat": 12.296784,
          "lon": -1.588135
        },
        {
          "name": "Unnamed School",
          "lat": 12.296831,
          "lon": -1.588416
        },
        {
          "name": "Unnamed School",
          "lat": 12.296873,
          "lon": -1.588663
        },
        {
          "name": "Unnamed School",
          "lat": 12.294927,
          "lon": -1.59575
        },
        {
          "name": "Unnamed School",
          "lat": 12.288967,
          "lon": -1.585496
        },
        {
          "name": "Unnamed School",
          "lat": 12.291471,
          "lon": -1.588207
        },
        {
          "name": "Unnamed School",
          "lat": 12.291927,
          "lon": -1.590082
        },
        {
          "name": "Unnamed School",
          "lat": 12.29155,
          "lon": -1.587755
        },
        {
          "name": "Unnamed School",
          "lat": 12.294745,
          "lon": -1.584766
        },
        {
          "name": "Unnamed School",
          "lat": 12.296146,
          "lon": -1.586363
        },
        {
          "name": "Unnamed School",
          "lat": 12.358791,
          "lon": -1.555136
        },
        {
          "name": "Unnamed School",
          "lat": 12.358823,
          "lon": -1.555357
        },
        {
          "name": "Unnamed School",
          "lat": 12.358718,
          "lon": -1.555565
        },
        {
          "name": "Unnamed School",
          "lat": 12.359405,
          "lon": -1.557618
        },
        {
          "name": "Unnamed School",
          "lat": 12.35925,
          "lon": -1.557428
        },
        {
          "name": "Unnamed School",
          "lat": 12.359283,
          "lon": -1.557854
        },
        {
          "name": "Unnamed School",
          "lat": 12.358824,
          "lon": -1.557816
        },
        {
          "name": "Unnamed School",
          "lat": 12.358822,
          "lon": -1.557379
        },
        {
          "name": "Unnamed School",
          "lat": 12.358604,
          "lon": -1.557531
        },
        {
          "name": "Unnamed School",
          "lat": 12.35807,
          "lon": -1.555294
        },
        {
          "name": "Unnamed School",
          "lat": 12.369818,
          "lon": -1.594447
        },
        {
          "name": "Unnamed School",
          "lat": 12.323758,
          "lon": -1.552501
        },
        {
          "name": "Unnamed School",
          "lat": 12.323534,
          "lon": -1.552744
        },
        {
          "name": "Unnamed School",
          "lat": 12.323644,
          "lon": -1.553136
        },
        {
          "name": "Unnamed School",
          "lat": 12.326682,
          "lon": -1.560444
        },
        {
          "name": "Unnamed School",
          "lat": 12.323331,
          "lon": -1.572056
        },
        {
          "name": "Unnamed School",
          "lat": 12.359028,
          "lon": -1.557838
        },
        {
          "name": "Unnamed School",
          "lat": 12.35919,
          "lon": -1.557742
        },
        {
          "name": "Unnamed School",
          "lat": 12.312758,
          "lon": -1.607137
        },
        {
          "name": "Unnamed School",
          "lat": 12.31373,
          "lon": -1.608264
        },
        {
          "name": "Unnamed School",
          "lat": 12.313469,
          "lon": -1.60792
        },
        {
          "name": "Unnamed School",
          "lat": 12.314819,
          "lon": -1.613075
        },
        {
          "name": "Unnamed School",
          "lat": 12.315344,
          "lon": -1.613712
        },
        {
          "name": "Unnamed School",
          "lat": 12.311689,
          "lon": -1.614447
        },
        {
          "name": "Unnamed School",
          "lat": 12.311699,
          "lon": -1.614848
        },
        {
          "name": "Unnamed School",
          "lat": 12.31252,
          "lon": -1.614857
        },
        {
          "name": "Unnamed School",
          "lat": 12.304364,
          "lon": -1.608645
        },
        {
          "name": "Unnamed School",
          "lat": 12.300966,
          "lon": -1.604528
        },
        {
          "name": "Unnamed School",
          "lat": 12.299433,
          "lon": -1.601835
        },
        {
          "name": "Unnamed School",
          "lat": 12.299397,
          "lon": -1.601637
        },
        {
          "name": "Unnamed School",
          "lat": 12.300153,
          "lon": -1.600301
        },
        {
          "name": "Unnamed School",
          "lat": 12.423773,
          "lon": -1.534314
        },
        {
          "name": "Unnamed School",
          "lat": 12.394485,
          "lon": -1.502173
        },
        {
          "name": "Unnamed School",
          "lat": 12.394403,
          "lon": -1.502267
        },
        {
          "name": "Unnamed School",
          "lat": 12.423919,
          "lon": -1.535373
        },
        {
          "name": "Unnamed School",
          "lat": 12.423974,
          "lon": -1.535714
        },
        {
          "name": "Unnamed School",
          "lat": 12.424555,
          "lon": -1.53563
        },
        {
          "name": "Unnamed School",
          "lat": 12.423534,
          "lon": -1.541294
        },
        {
          "name": "Unnamed School",
          "lat": 12.376483,
          "lon": -1.515428
        },
        {
          "name": "Unnamed School",
          "lat": 12.376444,
          "lon": -1.51561
        },
        {
          "name": "Unnamed School",
          "lat": 12.37186,
          "lon": -1.521983
        },
        {
          "name": "Unnamed School",
          "lat": 12.383026,
          "lon": -1.52271
        },
        {
          "name": "Unnamed School",
          "lat": 12.383134,
          "lon": -1.523136
        },
        {
          "name": "Unnamed School",
          "lat": 12.380944,
          "lon": -1.506363
        },
        {
          "name": "Unnamed School",
          "lat": 12.381002,
          "lon": -1.506112
        },
        {
          "name": "Unnamed School",
          "lat": 12.377375,
          "lon": -1.514295
        },
        {
          "name": "Unnamed School",
          "lat": 12.376892,
          "lon": -1.515291
        },
        {
          "name": "Unnamed School",
          "lat": 12.376946,
          "lon": -1.51504
        },
        {
          "name": "Unnamed School",
          "lat": 12.376518,
          "lon": -1.515255
        },
        {
          "name": "Unnamed School",
          "lat": 12.377218,
          "lon": -1.50443
        },
        {
          "name": "Unnamed School",
          "lat": 12.376642,
          "lon": -1.504408
        },
        {
          "name": "Unnamed School",
          "lat": 12.3861,
          "lon": -1.501358
        },
        {
          "name": "Unnamed School",
          "lat": 12.406783,
          "lon": -1.512626
        },
        {
          "name": "Unnamed School",
          "lat": 12.326338,
          "lon": -1.470847
        },
        {
          "name": "Unnamed School",
          "lat": 12.330688,
          "lon": -1.472821
        },
        {
          "name": "Unnamed School",
          "lat": 12.328258,
          "lon": -1.466792
        },
        {
          "name": "Unnamed School",
          "lat": 12.397298,
          "lon": -1.56082
        },
        {
          "name": "Unnamed School",
          "lat": 12.42141,
          "lon": -1.551505
        },
        {
          "name": "Unnamed School",
          "lat": 12.386679,
          "lon": -1.579233
        },
        {
          "name": "Unnamed School",
          "lat": 12.385785,
          "lon": -1.577662
        },
        {
          "name": "Unnamed School",
          "lat": 12.378221,
          "lon": -1.585392
        },
        {
          "name": "Unnamed School",
          "lat": 12.376105,
          "lon": -1.592958
        },
        {
          "name": "Unnamed School",
          "lat": 12.395557,
          "lon": -1.469755
        },
        {
          "name": "Unnamed School",
          "lat": 12.384862,
          "lon": -1.457667
        },
        {
          "name": "Unnamed School",
          "lat": 12.379253,
          "lon": -1.462374
        },
        {
          "name": "Unnamed School",
          "lat": 12.384112,
          "lon": -1.476716
        },
        {
          "name": "Unnamed School",
          "lat": 12.383003,
          "lon": -1.476309
        },
        {
          "name": "Unnamed School",
          "lat": 12.277389,
          "lon": -1.542781
        },
        {
          "name": "Unnamed School",
          "lat": 12.286226,
          "lon": -1.543005
        },
        {
          "name": "Unnamed School",
          "lat": 12.286375,
          "lon": -1.542183
        },
        {
          "name": "Unnamed School",
          "lat": 12.28543,
          "lon": -1.540521
        },
        {
          "name": "Unnamed School",
          "lat": 12.285185,
          "lon": -1.540599
        },
        {
          "name": "Unnamed School",
          "lat": 12.286142,
          "lon": -1.542225
        },
        {
          "name": "Unnamed School",
          "lat": 12.285348,
          "lon": -1.547153
        },
        {
          "name": "Unnamed School",
          "lat": 12.285288,
          "lon": -1.54692
        },
        {
          "name": "Unnamed School",
          "lat": 12.286337,
          "lon": -1.547109
        },
        {
          "name": "Unnamed School",
          "lat": 12.285371,
          "lon": -1.546501
        },
        {
          "name": "Unnamed School",
          "lat": 12.286146,
          "lon": -1.54338
        },
        {
          "name": "Unnamed School",
          "lat": 12.290779,
          "lon": -1.549064
        },
        {
          "name": "Unnamed School",
          "lat": 12.293282,
          "lon": -1.545771
        },
        {
          "name": "Unnamed School",
          "lat": 12.29405,
          "lon": -1.54284
        },
        {
          "name": "Unnamed School",
          "lat": 12.293513,
          "lon": -1.545388
        },
        {
          "name": "Unnamed School",
          "lat": 12.293762,
          "lon": -1.545504
        },
        {
          "name": "Unnamed School",
          "lat": 12.297453,
          "lon": -1.535059
        },
        {
          "name": "Unnamed School",
          "lat": 12.287096,
          "lon": -1.535349
        },
        {
          "name": "Unnamed School",
          "lat": 12.290225,
          "lon": -1.54893
        },
        {
          "name": "Unnamed School",
          "lat": 12.290468,
          "lon": -1.549108
        },
        {
          "name": "Unnamed School",
          "lat": 12.290033,
          "lon": -1.54875
        },
        {
          "name": "Unnamed School",
          "lat": 12.290753,
          "lon": -1.548687
        },
        {
          "name": "Unnamed School",
          "lat": 12.289995,
          "lon": -1.530949
        },
        {
          "name": "Unnamed School",
          "lat": 12.318349,
          "lon": -1.519203
        },
        {
          "name": "Unnamed School",
          "lat": 12.318756,
          "lon": -1.519984
        },
        {
          "name": "Unnamed School",
          "lat": 12.334313,
          "lon": -1.495347
        },
        {
          "name": "Unnamed School",
          "lat": 12.334356,
          "lon": -1.495207
        },
        {
          "name": "Unnamed School",
          "lat": 12.335306,
          "lon": -1.534919
        },
        {
          "name": "Unnamed School",
          "lat": 12.345817,
          "lon": -1.541634
        },
        {
          "name": "Unnamed School",
          "lat": 12.33155,
          "lon": -1.52968
        },
        {
          "name": "Unnamed School",
          "lat": 12.323147,
          "lon": -1.515594
        },
        {
          "name": "Unnamed School",
          "lat": 12.322462,
          "lon": -1.511962
        },
        {
          "name": "Unnamed School",
          "lat": 12.334312,
          "lon": -1.49552
        },
        {
          "name": "Unnamed School",
          "lat": 12.333968,
          "lon": -1.495444
        },
        {
          "name": "Unnamed School",
          "lat": 12.334087,
          "lon": -1.495271
        },
        {
          "name": "Unnamed School",
          "lat": 12.337644,
          "lon": -1.533499
        },
        {
          "name": "Unnamed School",
          "lat": 12.337203,
          "lon": -1.533679
        },
        {
          "name": "Unnamed School",
          "lat": 12.337592,
          "lon": -1.533133
        },
        {
          "name": "Unnamed School",
          "lat": 12.369577,
          "lon": -1.532969
        },
        {
          "name": "Unnamed School",
          "lat": 12.363038,
          "lon": -1.545767
        },
        {
          "name": "Unnamed School",
          "lat": 12.357283,
          "lon": -1.544056
        },
        {
          "name": "Unnamed School",
          "lat": 12.34943,
          "lon": -1.526912
        },
        {
          "name": "Unnamed School",
          "lat": 12.349084,
          "lon": -1.527138
        },
        {
          "name": "Unnamed School",
          "lat": 12.360432,
          "lon": -1.498151
        },
        {
          "name": "Unnamed School",
          "lat": 12.352073,
          "lon": -1.485743
        },
        {
          "name": "Unnamed School",
          "lat": 12.352065,
          "lon": -1.486136
        },
        {
          "name": "Unnamed School",
          "lat": 12.352196,
          "lon": -1.486201
        },
        {
          "name": "Unnamed School",
          "lat": 12.352912,
          "lon": -1.485647
        },
        {
          "name": "Unnamed School",
          "lat": 12.35295,
          "lon": -1.485973
        },
        {
          "name": "Unnamed School",
          "lat": 12.369949,
          "lon": -1.532979
        },
        {
          "name": "Unnamed School",
          "lat": 12.361381,
          "lon": -1.48126
        },
        {
          "name": "Unnamed School",
          "lat": 12.352504,
          "lon": -1.486487
        },
        {
          "name": "Unnamed School",
          "lat": 12.31835,
          "lon": -1.5192
        },
        {
          "name": "Unnamed School",
          "lat": 12.29014,
          "lon": -1.54904
        },
        {
          "name": "Unnamed School",
          "lat": 12.29006,
          "lon": -1.5311
        },
        {
          "name": "Unnamed School",
          "lat": 12.29739,
          "lon": -1.5351
        },
        {
          "name": "Unnamed School",
          "lat": 12.30285,
          "lon": -1.57786
        },
        {
          "name": "Unnamed School",
          "lat": 12.32333,
          "lon": -1.57205
        },
        {
          "name": "Unnamed School",
          "lat": 12.38474,
          "lon": -1.45768
        },
        {
          "name": "Unnamed School",
          "lat": 12.32315,
          "lon": -1.51559
        },
        {
          "name": "Unnamed School",
          "lat": 12.37607,
          "lon": -1.59294
        },
        {
          "name": "Unnamed School",
          "lat": 12.34583,
          "lon": -1.54167
        },
        {
          "name": "Unnamed School",
          "lat": 12.38665,
          "lon": -1.57926
        },
        {
          "name": "Unnamed School",
          "lat": 12.29615,
          "lon": -1.58636
        }
      ]
    }
  },
  "1999": {
    "Kadiogo": {
      "count": 801,
      "schools": [
        {
          "name": "institut de formation colbert",
          "lat": 12.31728,
          "lon": -1.525117
        },
        {
          "name": "École maternelle primaire \"THEA\"",
          "lat": 12.329777,
          "lon": -1.525389
        },
        {
          "name": "Collège Privé RAMODG-WENDE",
          "lat": 12.329418,
          "lon": -1.52494
        },
        {
          "name": "Institut Supérieur Privé de Management",
          "lat": 12.357004,
          "lon": -1.492439
        },
        {
          "name": "Juvenat filles st camille",
          "lat": 12.376638,
          "lon": -1.474951
        },
        {
          "name": "Université Aube Nouvelle",
          "lat": 12.36053,
          "lon": -1.498142
        },
        {
          "name": "CEEP Le Petit Monde",
          "lat": 12.359614,
          "lon": -1.50002
        },
        {
          "name": "Le Petit Monde",
          "lat": 12.358894,
          "lon": -1.500527
        },
        {
          "name": "Lycee de la jeunesse",
          "lat": 12.382832,
          "lon": -1.476206
        },
        {
          "name": "Lycée Novus",
          "lat": 12.367849,
          "lon": -1.47021
        },
        {
          "name": "Detachement Université ouaga II",
          "lat": 12.363072,
          "lon": -1.480181
        },
        {
          "name": "Groupe Scolaire Sainte-Collete - annexe professionnelle",
          "lat": 12.368406,
          "lon": -1.463046
        },
        {
          "name": "Cours privé Marie Curie",
          "lat": 12.369727,
          "lon": -1.46258
        },
        {
          "name": "ISIG INTERNATIONAL Annexe",
          "lat": 12.369224,
          "lon": -1.497944
        },
        {
          "name": "Ephata International",
          "lat": 12.383686,
          "lon": -1.477285
        },
        {
          "name": "Lycée technique Jean-paul II",
          "lat": 12.362105,
          "lon": -1.482988
        },
        {
          "name": "Garderie centre d'acceuil",
          "lat": 12.360979,
          "lon": -1.482687
        },
        {
          "name": "institut Panafricaine de Formation En Aeronautique",
          "lat": 12.363317,
          "lon": -1.480002
        },
        {
          "name": "Centre d'Apprentissage et de Perfectionnement En Anglais",
          "lat": 12.365032,
          "lon": -1.478848
        },
        {
          "name": "Institut des Sciences Techniques et de Management",
          "lat": 12.37643,
          "lon": -1.493462
        },
        {
          "name": "Institut International d'Ingénierie de l'Eau et de l'Environnement",
          "lat": 12.379233,
          "lon": -1.503213
        },
        {
          "name": "Charis",
          "lat": 12.373815,
          "lon": -1.488201
        },
        {
          "name": "juvenat garçon st camille",
          "lat": 12.375277,
          "lon": -1.490224
        },
        {
          "name": "Ecole Nationale Des Postes (ENAPOSTE)",
          "lat": 12.370328,
          "lon": -1.51426
        },
        {
          "name": "Joyeux bambims",
          "lat": 12.37394,
          "lon": -1.533896
        },
        {
          "name": "complexe cours du soir namalgué",
          "lat": 12.337137,
          "lon": -1.533352
        },
        {
          "name": "Steve Biko",
          "lat": 12.337424,
          "lon": -1.533495
        },
        {
          "name": "Jokkolabs Ouagadougou",
          "lat": 12.353762,
          "lon": -1.522504
        },
        {
          "name": "École primaire Tarwende",
          "lat": 12.336617,
          "lon": -1.540146
        },
        {
          "name": "Lagem Taaba A et B",
          "lat": 12.318511,
          "lon": -1.519722
        },
        {
          "name": "Ecole La Savane",
          "lat": 12.331121,
          "lon": -1.546293
        },
        {
          "name": "Lycée privé Millenium plus",
          "lat": 12.330523,
          "lon": -1.549028
        },
        {
          "name": "Préscolaire Communautaire Kam Laada (ICCV)",
          "lat": 12.33523,
          "lon": -1.534858
        },
        {
          "name": "Institut d'Application et de Vulgarisation en Sciences",
          "lat": 12.334765,
          "lon": -1.538247
        },
        {
          "name": "Complexe scolaire Saint-Laurent Remaria",
          "lat": 12.339547,
          "lon": -1.539258
        },
        {
          "name": "Lycée Privé Wend-Manegret",
          "lat": 12.334202,
          "lon": -1.495381
        },
        {
          "name": "Instutit Africain de Management (IAM)",
          "lat": 12.32703,
          "lon": -1.502006
        },
        {
          "name": "Groupe ESCO IGES",
          "lat": 12.346184,
          "lon": -1.550308
        },